,ori,agency_name,agency_type_name,state_name,state_abbr,division_name,region_name,region_desc,county_name,nibrs,latitude,longitude,nibrs_start_date
0,HI0010000,Hawaii Police Department County Sheriff's Office,County,Hawaii,HI,Pacific,West,Region IV,HAWAII,False,19.716698,-155.08688,
1,HI0050000,Maui Police Department County Sheriff's Office,County,Hawaii,HI,Pacific,West,Region IV,MAUI,False,20.887321,-156.48763,
2,HI0020000,Honolulu Police Department,City,Hawaii,HI,Pacific,West,Region IV,HONOLULU,True,21.304317,-157.85077,01/01/2018
3,HI0040000,Kauai Police Department County Sheriff's Office,County,Hawaii,HI,Pacific,West,Region IV,KAUAI,False,22.012038,-159.705965,
4,DE0030500,Milford Police Department,City,Delaware,DE,South Atlantic,South,Region III,KENT; SUSSEX,True,38.91612,-75.42161,01/01/2001
5,DE0030300,Laurel Police Department,City,Delaware,DE,South Atlantic,South,Region III,SUSSEX,True,38.677511,-75.335495,01/01/2001
6,DE0011900,Dover Fire Marshal,Other,Delaware,DE,South Atlantic,South,Region III,KENT,True,,,01/01/2013
7,DE0030100,Bridgeville Police Department,City,Delaware,DE,South Atlantic,South,Region III,SUSSEX,True,38.744175,-75.599144,01/01/2001
8,DE0032400,Dewey Beach Police Department,City,Delaware,DE,South Atlantic,South,Region III,SUSSEX,True,38.709568,-75.078224,01/01/2001
9,DE0030900,Blades Police Department,City,Delaware,DE,South Atlantic,South,Region III,SUSSEX,True,38.633743,-75.6098,01/01/2001
10,DE0011700,Environmental Control,Other State Agency,Delaware,DE,South Atlantic,South,Region III,KENT,True,39.164383,-75.51842,01/01/2001
11,DE301SP00,State Police: Kent County,State Police,Delaware,DE,South Atlantic,South,Region III,KENT,True,39.097088,-75.502982,01/01/2001
12,DE0030700,Rehoboth Beach Police Department,City,Delaware,DE,South Atlantic,South,Region III,SUSSEX,True,38.715996,-75.08348,01/01/2001
13,DE0020700,Elsmere Police Department,City,Delaware,DE,South Atlantic,South,Region III,NEW CASTLE,True,39.739624,-75.60179,01/01/2001
14,DE0020900,Delaware City Police Department,City,Delaware,DE,South Atlantic,South,Region III,NEW CASTLE,True,39.57391,-75.59376,01/01/2001
15,DE0013200,Delaware State University,University or College,Delaware,DE,South Atlantic,South,Region III,KENT,True,39.097088,-75.502982,08/01/2004
16,DE0020100,River and Bay Authority,Other State Agency,Delaware,DE,South Atlantic,South,Region III,NEW CASTLE,True,39.575915,-75.644132,01/01/2001
17,DE0020300,New Castle County Police Department,County,Delaware,DE,South Atlantic,South,Region III,NEW CASTLE,True,39.707096,-75.56667,01/01/2001
18,DE0022600,Wilmington Fire Department,Other,Delaware,DE,South Atlantic,South,Region III,NEW CASTLE,True,39.73873,-75.548965,01/01/2001
19,DE0020500,Newark Police Department,City,Delaware,DE,South Atlantic,South,Region III,NEW CASTLE,True,39.575915,-75.644132,01/01/2001
20,DE0031800,South Bethany Police Department,City,Delaware,DE,South Atlantic,South,Region III,SUSSEX,True,38.677511,-75.335495,01/01/2001
21,DE0010800,Frederica Police Department,City,Delaware,DE,South Atlantic,South,Region III,KENT,True,39.097088,-75.502982,11/01/2002
22,DEDSP0000,State Police,State Police,Delaware,DE,South Atlantic,South,Region III,,True,39.156284,-75.486595,08/01/2010
23,DE0031000,Bethany Beach Police Department,City,Delaware,DE,South Atlantic,South,Region III,SUSSEX,True,38.677511,-75.335495,01/01/2001
24,DE002159E,Amtrak Police,Other,Delaware,DE,South Atlantic,South,Region III,NEW CASTLE,True,,,01/01/2001
25,DE0010200,Harrington Police Department,City,Delaware,DE,South Atlantic,South,Region III,KENT,True,38.924095,-75.57957,01/01/2001
26,DE0031200,Fenwick Island Police Department,City,Delaware,DE,South Atlantic,South,Region III,SUSSEX,True,38.677511,-75.335495,01/01/2001
27,DE0031400,Greenwood Police Department,City,Delaware,DE,South Atlantic,South,Region III,SUSSEX,True,38.677511,-75.335495,01/01/2001
28,DE0012300,Park Rangers,Other State Agency,Delaware,DE,South Atlantic,South,Region III,KENT,True,39.097088,-75.502982,01/01/2001
29,DE0010600,Clayton Police Department,City,Delaware,DE,South Atlantic,South,Region III,KENT,True,39.097088,-75.502982,01/01/2001
30,DE001500X,Animal Welfare:,Other State Agency,Delaware,DE,South Atlantic,South,Region III,KENT,True,,,09/01/2015
31,DE0031600,Selbyville Police Department,City,Delaware,DE,South Atlantic,South,Region III,SUSSEX,True,38.677511,-75.335495,01/01/2001
32,DE0010400,Camden Police Department,City,Delaware,DE,South Atlantic,South,Region III,KENT,True,39.11345,-75.54225,01/01/2001
33,DE0021600,Alcohol and Tobacco Enforcement,Other State Agency,Delaware,DE,South Atlantic,South,Region III,NEW CASTLE,True,39.575915,-75.644132,01/01/2013
34,DE0030400,Lewes Police Department,City,Delaware,DE,South Atlantic,South,Region III,SUSSEX,True,38.677511,-75.335495,01/01/2001
35,DE0030200,Delmar Police Department,City,Delaware,DE,South Atlantic,South,Region III,SUSSEX,True,38.677511,-75.335495,01/01/2001
36,DE003350X,Attorney General: Sussex County,Other State Agency,Delaware,DE,South Atlantic,South,Region III,SUSSEX,True,38.690628,-75.385086,01/01/2001
37,DE003500X,Animal Welfare:,Other State Agency,Delaware,DE,South Atlantic,South,Region III,SUSSEX,True,,,12/01/2015
38,DE0013300,Viola Police Department,City,Delaware,DE,South Atlantic,South,Region III,KENT,True,,,07/01/2013
39,DE0011800,State Capitol Police,Other State Agency,Delaware,DE,South Atlantic,South,Region III,KENT,True,39.097088,-75.502982,01/01/2001
40,DE0030800,Seaford Police Department,City,Delaware,DE,South Atlantic,South,Region III,SUSSEX,True,38.65286,-75.61424,01/01/2001
41,DE0030600,Milton Police Department,City,Delaware,DE,South Atlantic,South,Region III,SUSSEX,True,38.77769,-75.31031,01/01/2001
42,DE0020800,Newport Police Department,City,Delaware,DE,South Atlantic,South,Region III,NEW CASTLE,True,39.575915,-75.644132,01/01/2001
43,DE0013100,Wyoming Police Department,City,Delaware,DE,South Atlantic,South,Region III,KENT,True,39.118744,-75.55912,01/01/2001
44,DE0020200,Middletown Police Department,City,Delaware,DE,South Atlantic,South,Region III,NEW CASTLE,True,39.44838,-75.71802,10/01/2007
45,DE0020400,New Castle Police Department,City,Delaware,DE,South Atlantic,South,Region III,NEW CASTLE,True,39.575915,-75.644132,01/01/2001
46,DE0020600,Wilmington Police Department,City,Delaware,DE,South Atlantic,South,Region III,NEW CASTLE,True,39.73873,-75.548965,01/01/2001
47,DE002500X,Animal Welfare:,Other State Agency,Delaware,DE,South Atlantic,South,Region III,NEW CASTLE,True,,,09/01/2015
48,DE0031700,Ocean View Police Department,City,Delaware,DE,South Atlantic,South,Region III,SUSSEX,True,38.677511,-75.335495,01/01/2001
49,DE0031900,Frankford Police Department,City,Delaware,DE,South Atlantic,South,Region III,SUSSEX,True,38.677511,-75.335495,01/01/2001
50,DE0010900,Kenton Police Department,City,Delaware,DE,South Atlantic,South,Region III,KENT,True,39.097088,-75.502982,05/01/2012
51,DE303SP00,State Police: Sussex County,State Police,Delaware,DE,South Atlantic,South,Region III,SUSSEX,True,38.677511,-75.335495,01/01/2001
52,DE0012600,Cheswold Police Department,City,Delaware,DE,South Atlantic,South,Region III,KENT,True,39.097088,-75.502982,01/01/2001
53,DE0010300,Smyrna Police Department,City,Delaware,DE,South Atlantic,South,Region III,NEW CASTLE; KENT,True,39.300205,-75.61435,01/01/2001
54,DE001300X,Attorney General: Kent County,Other State Agency,Delaware,DE,South Atlantic,South,Region III,KENT,True,39.154705,-75.52337,02/01/2001
55,DE0031100,Dagsboro Police Department,City,Delaware,DE,South Atlantic,South,Region III,SUSSEX,True,38.677511,-75.335495,01/01/2001
56,DE0010100,Dover Police Department,City,Delaware,DE,South Atlantic,South,Region III,KENT,True,39.097088,-75.502982,01/01/2001
57,DE0031300,Georgetown Police Department,City,Delaware,DE,South Atlantic,South,Region III,SUSSEX,True,38.694782,-75.3895,01/01/2001
58,DE0012200,Fish and Wildlife,Other State Agency,Delaware,DE,South Atlantic,South,Region III,KENT,True,39.097088,-75.502982,03/01/2013
59,DE0010700,Felton Police Department,City,Delaware,DE,South Atlantic,South,Region III,KENT,True,39.01094,-75.57476,01/01/2001
60,DE0031500,Millsboro Police Department,City,Delaware,DE,South Atlantic,South,Region III,SUSSEX,True,38.677511,-75.335495,01/01/2001
61,DE0012000,State Fire Marshal,Other State Agency,Delaware,DE,South Atlantic,South,Region III,KENT,True,39.168213,-75.588066,01/01/2001
62,DE0029Z0X,Attorney General: New Castle County,Other State Agency,Delaware,DE,South Atlantic,South,Region III,NEW CASTLE,True,39.742977,-75.547295,01/01/2001
63,DE0033000,Ellendale Police Department,City,Delaware,DE,South Atlantic,South,Region III,SUSSEX,True,38.677511,-75.335495,01/01/2001
64,DE302SP00,State Police: New Castle County,State Police,Delaware,DE,South Atlantic,South,Region III,NEW CASTLE,True,39.575915,-75.644132,01/01/2001
65,DE0021700,University of Delaware,University or College,Delaware,DE,South Atlantic,South,Region III,NEW CASTLE,True,39.67637,-75.75021,01/01/2001
66,PRPPR0000,Puerto Rico ,Other,Puerto Rico,PR,U.S. Territories,U.S. Territories,U.S. Territories,,False,,,
67,TX2390000,Washington County Sheriff's Office,County,Texas,TX,West South Central,South,Region III,WASHINGTON,True,30.17912,-96.388176,03/01/2018
68,TX0201700,Alvin Community College,University or College,Texas,TX,West South Central,South,Region III,BRAZORIA,False,29.167817,-95.434647,
69,TX0690000,Edwards County Sheriff's Office,County,Texas,TX,West South Central,South,Region III,EDWARDS,False,29.985877,-100.307373,
70,TX1011700,Seabrook Police Department,City,Texas,TX,West South Central,South,Region III,HARRIS,True,29.564535,-95.02338,10/01/2019
71,TX1660000,Milam County Sheriff's Office,County,Texas,TX,West South Central,South,Region III,MILAM,False,30.85512,-96.98046,01/01/2020
72,TX1890100,Marfa Police Department,City,Texas,TX,West South Central,South,Region III,PRESIDIO,False,30.005891,-104.261619,
73,TX1580000,Marion County Sheriff's Office,County,Texas,TX,West South Central,South,Region III,MARION,True,32.798182,-94.356853,05/01/2019
74,TX2470000,Wilson County Sheriff's Office,County,Texas,TX,West South Central,South,Region III,WILSON,True,29.173883,-98.086734,05/01/2019
75,TX0612500,Double Oak Police Department,City,Texas,TX,West South Central,South,Region III,DENTON,True,33.062622,-97.095955,01/01/2017
76,TX0840200,Dickinson Police Department,City,Texas,TX,West South Central,South,Region III,GALVESTON,True,29.462942,-95.05215,10/01/2019
77,TX1017000,Independent School District: Spring Branch,Other,Texas,TX,West South Central,South,Region III,HARRIS,False,29.798367,-95.51263,
78,TX0202800,Surfside Beach Police Department,City,Texas,TX,West South Central,South,Region III,BRAZORIA,True,28.944168,-95.297905,01/01/2018
79,TX0290100,Point Comfort Police Department,City,Texas,TX,West South Central,South,Region III,CALHOUN,False,28.445366,-96.5833,
80,TX0680200,Odessa Police Department,City,Texas,TX,West South Central,South,Region III,MIDLAND; ECTOR,False,31.845774,-102.36773,
81,TX0450100,Columbus Police Department,City,Texas,TX,West South Central,South,Region III,COLORADO,True,29.595991,-96.508433,12/01/2018
82,TX1012800,Nassau Bay Police Department,City,Texas,TX,West South Central,South,Region III,HARRIS,True,29.857273,-95.393037,10/01/2019
83,TX2460200,Georgetown Police Department,City,Texas,TX,West South Central,South,Region III,WILLIAMSON,True,30.636448,-97.680916,10/01/2003
84,TX1810200,Orange Police Department,City,Texas,TX,West South Central,South,Region III,ORANGE,True,30.120918,-93.893358,01/01/2018
85,TX0313300,Indian Lake Police Department,City,Texas,TX,West South Central,South,Region III,CAMERON,False,26.102923,-97.478958,
86,TX1820000,Palo Pinto County Sheriff's Office,County,Texas,TX,West South Central,South,Region III,PALO PINTO,True,32.75221,-98.317974,11/01/2019
87,TX1981000,Franklin,City,Texas,TX,West South Central,South,Region III,ROBERTSON,False,,,02/01/2020
88,TX1090300,Itasca Police Department,City,Texas,TX,West South Central,South,Region III,HILL,True,32.159992,-97.15036,07/01/2019
89,TX0152200,Selma Police Department,City,Texas,TX,West South Central,South,Region III,COMAL; GUADALUPE; BEXAR,False,29.448671,-98.520147,
90,TX0110800,Independent School District:,Other,Texas,TX,West South Central,South,Region III,BASTROP,False,,,
91,TX2230100,Brownfield Police Department,City,Texas,TX,West South Central,South,Region III,TERRY,True,33.171229,-102.339284,02/01/2018
92,TX0431800,Murphy Police Department,City,Texas,TX,West South Central,South,Region III,COLLIN,True,33.016426,-96.612785,01/01/2007
93,TX1080500,Elsa Police Department,City,Texas,TX,West South Central,South,Region III,HIDALGO,False,26.396384,-98.18099,
94,TX0670400,Ranger Police Department,City,Texas,TX,West South Central,South,Region III,EASTLAND,False,32.471584,-98.683,
95,TX0611400,Aubrey Police Department,City,Texas,TX,West South Central,South,Region III,DENTON,False,33.304184,-96.98627,01/01/2020
96,TX1260100,Alvarado Police Department,City,Texas,TX,West South Central,South,Region III,JOHNSON,False,32.40696,-97.21228,
97,TX0850000,Garza County Sheriff's Office,County,Texas,TX,West South Central,South,Region III,GARZA,False,33.198063,-101.382416,
98,TX0575000,Hospital District: Dallas County,Other,Texas,TX,West South Central,South,Region III,DALLAS,False,32.812763,-96.838455,
99,TX0570800,Desoto Police Department,City,Texas,TX,West South Central,South,Region III,DALLAS,True,32.766987,-96.778424,03/01/2019
100,TX2050500,Taft Police Department,City,Texas,TX,West South Central,South,Region III,SAN PATRICIO,True,27.981573,-97.39302,01/01/2018
101,TX1431000,Moulton Police Department,City,Texas,TX,West South Central,South,Region III,LAVACA,True,29.382578,-96.923633,06/01/2018
102,TX1550800,Mart Police Department,City,Texas,TX,West South Central,South,Region III,LIMESTONE; MCLENNAN,False,31.549493,-97.201472,
103,TX1330500,Ingram Police Department,City,Texas,TX,West South Central,South,Region III,KERR,True,30.07363,-99.23886,04/01/2018
104,TX1030000,Hartley County Sheriff's Office,County,Texas,TX,West South Central,South,Region III,HARTLEY,False,35.840244,-102.610047,01/01/2020
105,TX1700800,Patton Village Police Department,City,Texas,TX,West South Central,South,Region III,MONTGOMERY,False,30.299402,-95.504008,
106,TX1070900,Caney City Police Department,City,Texas,TX,West South Central,South,Region III,HENDERSON,False,32.211633,-95.853418,
107,TX0270700,Granite Shoals Police Department,City,Texas,TX,West South Central,South,Region III,BURNET,False,30.590641,-98.38533,
108,TX0210200,College Station Police Department,City,Texas,TX,West South Central,South,Region III,BRAZOS,True,30.656725,-96.302389,01/01/2018
109,TX2120900,University of Texas: Tyler,University or College,Texas,TX,West South Central,South,Region III,SMITH,False,32.31339,-95.244896,
110,TX1500100,Llano Police Department,City,Texas,TX,West South Central,South,Region III,LLANO,True,30.750307,-98.67835,01/01/1998
111,TX1230700,Port Arthur Police Department,City,Texas,TX,West South Central,South,Region III,ORANGE; JEFFERSON,True,29.854,-94.149331,09/01/2019
112,TX1200000,Jackson County Sheriff's Office,County,Texas,TX,West South Central,South,Region III,JACKSON,True,28.97839,-96.646736,07/01/2012
113,TX2200900,Euless Police Department,City,Texas,TX,West South Central,South,Region III,TARRANT,False,32.77204,-97.291291,
114,TX1100400,South Plains College,University or College,Texas,TX,West South Central,South,Region III,HOCKLEY,False,33.578476,-102.3678,
115,TX0430500,McKinney Police Department,City,Texas,TX,West South Central,South,Region III,COLLIN,True,33.194745,-96.579846,04/01/1997
116,TX0140000,Bell County Sheriff's Office,County,Texas,TX,West South Central,South,Region III,BELL,False,31.042303,-97.481374,
117,TX2300300,Ore City Police Department,City,Texas,TX,West South Central,South,Region III,UPSHUR,True,32.735349,-94.941184,01/01/2019
118,TX0910400,Sherman Police Department,City,Texas,TX,West South Central,South,Region III,GRAYSON,True,33.624508,-96.675699,09/01/2019
119,TX0220000,Brewster County Sheriff's Office,County,Texas,TX,West South Central,South,Region III,BREWSTER,True,29.434357,-95.24559,01/01/2015
120,TX1020200,Marshall Police Department,City,Texas,TX,West South Central,South,Region III,HARRISON,False,32.547991,-94.374434,
121,TX0371200,Cuney Police Department,City,Texas,TX,West South Central,South,Region III,CHEROKEE,True,31.843872,-95.156345,01/01/2018
122,TX0310000,Cameron County Sheriff's Office,County,Texas,TX,West South Central,South,Region III,CAMERON,False,26.102923,-97.478958,
123,TX0920200,Gladewater Police Department,City,Texas,TX,West South Central,South,Region III,UPSHUR; GREGG,True,32.531593,-94.94975,10/01/2018
124,TX0540100,Crosbyton Police Department,City,Texas,TX,West South Central,South,Region III,CROSBY,False,33.659977,-101.239655,
125,TX2205100,Independent School District:,Other,Texas,TX,West South Central,South,Region III,TARRANT,True,,,01/01/2019
126,TX1010400,Deer Park Police Department,City,Texas,TX,West South Central,South,Region III,HARRIS,True,29.857273,-95.393037,10/01/2019
127,TX2462400,Liberty Hill,City,Texas,TX,West South Central,South,Region III,WILLIAMSON,False,,,
128,TX1120000,Hopkins County Sheriff's Office,County,Texas,TX,West South Central,South,Region III,HOPKINS,True,33.139645,-95.59928,02/01/2019
129,TX1740000,Nacogdoches County Sheriff's Office,County,Texas,TX,West South Central,South,Region III,NACOGDOCHES,True,31.610912,-94.68126,01/01/2015
130,TX1013900,University of Houston: Clearlake,University or College,Texas,TX,West South Central,South,Region III,HARRIS,False,29.577593,-95.106766,
131,TX0930000,Grimes County Sheriff's Office,County,Texas,TX,West South Central,South,Region III,GRIMES,False,30.543231,-95.988082,
132,TX0141100,Holland Police Department,City,Texas,TX,West South Central,South,Region III,BELL,False,31.042303,-97.481374,
133,TX0701000,Waxahachie Police Department,City,Texas,TX,West South Central,South,Region III,ELLIS,True,32.38487,-96.84779,09/01/2019
134,TX0370100,Jacksonville Police Department,City,Texas,TX,West South Central,South,Region III,CHEROKEE,True,31.843872,-95.156345,06/01/2009
135,TX0200400,Danbury Police Department,City,Texas,TX,West South Central,South,Region III,BRAZORIA,False,29.167817,-95.434647,
136,TX1910000,Randall County Sheriff's Office,County,Texas,TX,West South Central,South,Region III,RANDALL,False,35.119816,-101.86604,
137,TX1750000,Navarro County Sheriff's Office,County,Texas,TX,West South Central,South,Region III,NAVARRO,True,32.09607,-96.46836,01/01/2017
138,TX1590000,Martin County Sheriff's Office,County,Texas,TX,West South Central,South,Region III,MARTIN,True,32.30983,-101.961836,01/01/2019
139,TX2480000,Winkler County Sheriff's Office,County,Texas,TX,West South Central,South,Region III,WINKLER,False,31.831415,-103.055986,01/01/2020
140,TX1011900,South Houston Police Department,City,Texas,TX,West South Central,South,Region III,HARRIS,True,29.857273,-95.393037,05/01/2011
141,TX2204000,Colleyville Police Department,City,Texas,TX,West South Central,South,Region III,TARRANT,True,32.88482,-97.14835,12/01/2019
142,TX1960100,Refugio Police Department,City,Texas,TX,West South Central,South,Region III,REFUGIO,False,28.312716,-97.161366,
143,TX091199E,Austin College,University or College,Texas,TX,West South Central,South,Region III,GRAYSON,False,,,
144,TX0860000,Gillespie County Sheriff's Office,County,Texas,TX,West South Central,South,Region III,GILLESPIE,False,30.250408,-98.847885,
145,TX2080100,Snyder Police Department,City,Texas,TX,West South Central,South,Region III,SCURRY,True,32.744462,-100.913399,01/01/2019
146,TX220750X,Southwestern Baptist Theological Seminary,University or College,Texas,TX,West South Central,South,Region III,TARRANT,True,,,01/01/2019
147,TX1190100,Jacksboro Police Department,City,Texas,TX,West South Central,South,Region III,JACK,False,33.23241,-98.171884,
148,TX0312400,Independent School District: Brownsville,Other,Texas,TX,West South Central,South,Region III,CAMERON,False,25.934692,-97.48412,
149,TX2380000,Ward County Sheriff's Office,County,Texas,TX,West South Central,South,Region III,WARD,True,31.592508,-102.88987,04/01/2018
150,TX0153500,Independent School District: East Central,Other,Texas,TX,West South Central,South,Region III,BEXAR,False,29.448671,-98.520147,
151,TX101769E,St. Thomas University,University or College,Texas,TX,West South Central,South,Region III,HARRIS,False,,,
152,TX2470200,Poth Police Department,City,Texas,TX,West South Central,South,Region III,WILSON,False,29.173883,-98.086734,
153,TX1810000,Orange County Sheriff's Office,County,Texas,TX,West South Central,South,Region III,ORANGE,True,30.120918,-93.893358,02/01/2019
154,TX1430100,Hallettsville Police Department,City,Texas,TX,West South Central,South,Region III,LAVACA,True,29.443789,-96.94298,03/01/2017
155,TX0840400,Galveston Police Department,City,Texas,TX,West South Central,South,Region III,GALVESTON,True,29.29432,-94.828705,10/01/2019
156,TX0670200,Eastland Police Department,City,Texas,TX,West South Central,South,Region III,EASTLAND,True,32.324645,-98.83656,03/01/2017
157,TX0290300,Seadrift Police Department,City,Texas,TX,West South Central,South,Region III,CALHOUN,False,28.445366,-96.5833,
158,TX2460400,Hutto Police Department,City,Texas,TX,West South Central,South,Region III,WILLIAMSON,False,30.542425,-97.54668,
159,TX2010000,Rusk County Sheriff's Office,County,Texas,TX,West South Central,South,Region III,RUSK,True,32.154736,-94.80016,12/01/2010
160,TX1017200,Independent School District: Pasadena,Other,Texas,TX,West South Central,South,Region III,HARRIS,True,29.677027,-95.19033,03/01/2019
161,TX1250100,Alice Police Department,City,Texas,TX,West South Central,South,Region III,JIM WELLS,False,27.733516,-98.090814,
162,TX0450300,Weimar Police Department,City,Texas,TX,West South Central,South,Region III,COLORADO,False,29.595991,-96.508433,
163,TX0680000,Ector County Sheriff's Office,County,Texas,TX,West South Central,South,Region III,ECTOR,False,31.865301,-102.542507,
164,TX1650000,Midland County Sheriff's Office,County,Texas,TX,West South Central,South,Region III,MIDLAND,False,31.870896,-102.024326,
165,TX1090100,Hillsboro Police Department,City,Texas,TX,West South Central,South,Region III,HILL,True,31.982681,-97.130668,03/01/2018
166,TX1040000,Haskell County Sheriff's Office,County,Texas,TX,West South Central,South,Region III,HASKELL,False,33.175965,-99.730773,
167,TX1080300,Edcouch Police Department,City,Texas,TX,West South Central,South,Region III,HIDALGO,True,26.396384,-98.18099,12/01/2016
168,TX0460100,New Braunfels Police Department,City,Texas,TX,West South Central,South,Region III,GUADALUPE; COMAL,True,29.692354,-98.11035,02/01/2018
169,TX2401000,Rio Bravo Police Department,City,Texas,TX,West South Central,South,Region III,WEBB,True,27.770584,-99.326641,07/01/2015
170,TX1160700,Caddo Mills Police Department,City,Texas,TX,West South Central,South,Region III,HUNT,False,33.123292,-96.084202,01/01/2020
171,TX0140200,Belton Police Department,City,Texas,TX,West South Central,South,Region III,BELL,False,31.042303,-97.481374,
172,TX0210000,Brazos County Sheriff's Office,County,Texas,TX,West South Central,South,Region III,BRAZOS,False,30.687794,-96.3732,
173,TX2011100,Tatum Police Department,City,Texas,TX,West South Central,South,Region III,PANOLA; RUSK,True,32.109423,-94.756382,01/01/2019
174,TX1400500,Sudan Police Department,City,Texas,TX,West South Central,South,Region III,LAMB,True,34.068861,-102.348018,01/01/2019
175,TX1550600,Lorena Police Department,City,Texas,TX,West South Central,South,Region III,MCLENNAN,True,31.549493,-97.201472,01/01/2018
176,TX0910200,Denison Police Department,City,Texas,TX,West South Central,South,Region III,GRAYSON,True,33.624508,-96.675699,04/01/2019
177,TX1551700,Riesel Police Department,City,Texas,TX,West South Central,South,Region III,MCLENNAN,False,31.549493,-97.201472,
178,TX0151100,Olmos Park Police Department,City,Texas,TX,West South Central,South,Region III,BEXAR,True,29.471867,-98.4906,01/01/2019
179,TX1230500,Nederland Police Department,City,Texas,TX,West South Central,South,Region III,JEFFERSON,True,29.854,-94.149331,12/01/2018
180,TX1200200,Ganado Police Department,City,Texas,TX,West South Central,South,Region III,JACKSON,False,28.959802,-96.58908,
181,TX2271900,Sunset Valley Police Department,City,Texas,TX,West South Central,South,Region III,TRAVIS,True,30.239513,-97.69127,12/01/2016
182,TX2000000,Runnels County Sheriff's Office,County,Texas,TX,West South Central,South,Region III,RUNNELS,True,31.738207,-99.94529,09/01/2018
183,TX0610500,Lake Dallas Police Department,City,Texas,TX,West South Central,South,Region III,DENTON,True,33.205005,-97.119046,08/01/2019
184,TX1081400,Weslaco Police Department,City,Texas,TX,West South Central,South,Region III,HIDALGO,False,26.17173,-97.974785,
185,TX0700100,Ennis Police Department,City,Texas,TX,West South Central,South,Region III,ELLIS,True,32.347294,-96.798231,02/01/2018
186,TX0430700,Prosper Police Department,City,Texas,TX,West South Central,South,Region III,DENTON; COLLIN,True,33.194745,-96.579846,01/01/2019
187,TX0310200,Combes Police Department,City,Texas,TX,West South Central,South,Region III,CAMERON,True,26.102923,-97.478958,10/01/2019
188,TX1261200,Venus Police Department,City,Texas,TX,West South Central,South,Region III,ELLIS; JOHNSON,True,32.379784,-97.364952,02/01/2019
189,TX1110000,Hood County Sheriff's Office,County,Texas,TX,West South Central,South,Region III,HOOD,True,32.430149,-97.831677,09/01/2017
190,TX2150100,Breckenridge Police Department,City,Texas,TX,West South Central,South,Region III,STEPHENS,True,32.756283,-98.90226,01/01/2018
191,TX2370800,Prairie View  Police Department,City,Texas,TX,West South Central,South,Region III,WALLER,False,30.013578,-95.982102,
192,TX0080900,Independent School District: Sealy,Other,Texas,TX,West South Central,South,Region III,AUSTIN,False,29.772886,-96.15974,
193,TX0920000,Gregg County Sheriff's Office,County,Texas,TX,West South Central,South,Region III,GREGG,False,32.486397,-94.816276,
194,TX1010600,Galena Park Police Department,City,Texas,TX,West South Central,South,Region III,HARRIS,False,29.857273,-95.393037,
195,TX0320000,Camp County Sheriff's Office,County,Texas,TX,West South Central,South,Region III,CAMP,True,32.995636,-94.9661,01/01/2019
196,TX2140300,Roma Police Department,City,Texas,TX,West South Central,South,Region III,STARR,True,26.546335,-98.715803,12/01/2016
197,TX1170500,Stinnett Police Department,City,Texas,TX,West South Central,South,Region III,HUTCHINSON,False,35.837047,-101.362746,
198,TX0750800,Flatonia Police Department,City,Texas,TX,West South Central,South,Region III,FAYETTE,False,29.877886,-96.921231,
199,TX0150000,Bexar County Sheriff's Office,County,Texas,TX,West South Central,South,Region III,BEXAR,False,29.429178,-98.50717,
200,TX1740200,Nacogdoches Police Department,City,Texas,TX,West South Central,South,Region III,NACOGDOCHES,True,31.62056,-94.62025,09/01/1997
201,TX0200200,Angleton Police Department,City,Texas,TX,West South Central,South,Region III,BRAZORIA,True,29.182587,-95.432724,12/01/2019
202,TX1390400,Paris Junior College,University or College,Texas,TX,West South Central,South,Region III,LAMAR,False,33.667263,-95.570348,
203,TX2540000,Zavala County Sheriff's Office,County,Texas,TX,West South Central,South,Region III,ZAVALA,True,28.679815,-99.82764,09/01/2015
204,TX1082500,Independent School District: Edinburg,Other,Texas,TX,West South Central,South,Region III,HIDALGO,False,26.306498,-98.14821,
205,TX0311300,South Padre Island Police Department,City,Texas,TX,West South Central,South,Region III,CAMERON,True,26.102923,-97.478958,01/01/2018
206,TX2320100,Uvalde Police Department,City,Texas,TX,West South Central,South,Region III,UVALDE,False,29.35034,-99.761074,
207,TX0572800,University of Texas: Dallas,University or College,Texas,TX,West South Central,South,Region III,DALLAS,True,32.766987,-96.778424,05/01/2019
208,TX0950000,Hale County Sheriff's Office,County,Texas,TX,West South Central,South,Region III,HALE,False,34.1599,-101.70848,
209,TX0432500,Fairview Police Department,City,Texas,TX,West South Central,South,Region III,COLLIN,False,33.194745,-96.579846,
210,TX1011300,La Porte Police Department,City,Texas,TX,West South Central,South,Region III,HARRIS,True,29.857273,-95.393037,10/01/2019
211,TX2202700,Westover Hills Police Department,City,Texas,TX,West South Central,South,Region III,TARRANT,True,32.73811,-97.41003,05/01/2018
212,TX1680000,Mitchell County Sheriff's Office,County,Texas,TX,West South Central,South,Region III,MITCHELL,False,32.390095,-100.86947,
213,TX2250100,Mount Pleasant Police Department,City,Texas,TX,West South Central,South,Region III,TITUS,True,33.214599,-94.966783,08/01/2019
214,TX0870000,Glasscock County Sheriff's Office,County,Texas,TX,West South Central,South,Region III,GLASSCOCK,True,31.868006,-101.521494,05/01/2018
215,TX0612900,Roanoke Police Department,City,Texas,TX,West South Central,South,Region III,DENTON,True,33.00069,-97.22178,12/01/2019
216,TX1430300,Yoakum Police Department,City,Texas,TX,West South Central,South,Region III,DEWITT; LAVACA,True,29.382578,-96.923633,01/01/2019
217,TX0240000,Brooks County Sheriff's Office,County,Texas,TX,West South Central,South,Region III,BROOKS,False,27.034994,-98.215276,
218,TX2020000,Sabine County Sheriff's Office,County,Texas,TX,West South Central,South,Region III,SABINE,True,31.3433,-93.851913,02/01/2019
219,TX0840600,Kemah Police Department,City,Texas,TX,West South Central,South,Region III,GALVESTON,True,29.531988,-95.01457,11/01/2019
220,TX0670000,Eastland County Sheriff's Office,County,Texas,TX,West South Central,South,Region III,EASTLAND,True,32.402565,-98.81908,01/01/2019
221,TX1012400,Memorial Villages Police Department,City,Texas,TX,West South Central,South,Region III,HARRIS,False,29.763218,-95.538185,
222,TX2201600,Hurst Police Department,City,Texas,TX,West South Central,South,Region III,TARRANT,True,32.77204,-97.291291,07/01/2019
223,TX1440100,Giddings Police Department,City,Texas,TX,West South Central,South,Region III,LEE,True,30.18012,-96.937515,05/01/2019
224,TX1015900,Lone Star College System District ,University or College,Texas,TX,West South Central,South,Region III,HARRIS,True,30.201002,-95.510475,01/01/2019
225,TX2450000,Willacy County Sheriff's Office,County,Texas,TX,West South Central,South,Region III,WILLACY,True,26.47072,-97.76458,09/01/2019
226,TX1080900,Mercedes Police Department,City,Texas,TX,West South Central,South,Region III,HIDALGO,False,26.14871,-97.91219,
227,TX1781600,Independent School District: Corpus Christi,Other,Texas,TX,West South Central,South,Region III,NUECES,False,27.7938,-97.457306,
228,TX0520100,Crane Police Department,City,Texas,TX,West South Central,South,Region III,CRANE,False,31.397306,-102.35043,
229,TX0430100,Allen Police Department,City,Texas,TX,West South Central,South,Region III,COLLIN,False,33.101547,-96.67242,
230,TX0140400,Killeen Police Department,City,Texas,TX,West South Central,South,Region III,BELL,False,31.042303,-97.481374,
231,TX0570400,Carrollton Police Department,City,Texas,TX,West South Central,South,Region III,COLLIN; DALLAS; DENTON,False,32.766987,-96.778424,
232,TX1100000,Hockley County Sheriff's Office,County,Texas,TX,West South Central,South,Region III,HOCKLEY,True,33.57934,-102.37784,04/01/2019
233,TX1070500,Seven Points Police Department,City,Texas,TX,West South Central,South,Region III,KAUFMAN; HENDERSON,False,32.211633,-95.853418,
234,TX0360700,Mont Belvieu Police Department,City,Texas,TX,West South Central,South,Region III,CHAMBERS,True,29.703933,-94.668875,01/01/2017
235,TX0711200,Clint Police Department,City,Texas,TX,West South Central,South,Region III,EL PASO,False,31.766403,-106.24139,
236,TX0790700,Needville Police Department,City,Texas,TX,West South Central,South,Region III,FORT BEND,False,29.526602,-95.771015,
237,TX2200500,Blue Mound Police Department,City,Texas,TX,West South Central,South,Region III,TARRANT,True,32.864803,-97.34241,01/01/2019
238,TX1800000,Oldham County Sheriff's Office,County,Texas,TX,West South Central,South,Region III,OLDHAM,False,35.401921,-102.59762,01/01/2020
239,TX0660200,San Diego Police Department,City,Texas,TX,West South Central,South,Region III,JIM WELLS; DUVAL,False,27.760904,-98.23882,
240,TX1500500,Sunrise Beach Village Police Department,City,Texas,TX,West South Central,South,Region III,LLANO,True,30.58983,-98.42496,01/01/2019
241,TX0151300,Terrell Hills Police Department,City,Texas,TX,West South Central,South,Region III,BEXAR,False,29.474962,-98.45926,
242,TX1230300,Groves Police Department,City,Texas,TX,West South Central,South,Region III,JEFFERSON,False,29.854,-94.149331,
243,TX2520200,Olney Police Department,City,Texas,TX,West South Central,South,Region III,YOUNG,True,33.158787,-98.678267,08/01/2018
244,TX1720000,Morris County Sheriff's Office,County,Texas,TX,West South Central,South,Region III,MORRIS,False,33.03609,-94.727,
245,TX0610700,Pilot Point Police Department,City,Texas,TX,West South Central,South,Region III,DENTON,False,33.205005,-97.119046,
246,TX2210300,Merkel Police Department,City,Texas,TX,West South Central,South,Region III,TAYLOR,False,32.470726,-100.01267,
247,TX1780500,Port Aransas Police Department,City,Texas,TX,West South Central,South,Region III,NUECES,False,27.738129,-97.518441,
248,TX0080700,Wallis Police Department,City,Texas,TX,West South Central,South,Region III,AUSTIN,True,29.891901,-96.27017,01/01/2019
249,TX0590000,Deaf Smith County Sheriff's Office,County,Texas,TX,West South Central,South,Region III,DEAF SMITH,True,34.817413,-102.39784,06/01/2018
250,TX0160000,Blanco County Sheriff's Office,County,Texas,TX,West South Central,South,Region III,BLANCO,True,30.265605,-98.399977,10/01/2019
251,TX0842800,Independent School District: Santa Fe,Other,Texas,TX,West South Central,South,Region III,GALVESTON,False,29.228364,-94.895428,
252,TX2530000,Zapata County Sheriff's Office,County,Texas,TX,West South Central,South,Region III,ZAPATA,False,26.996981,-99.182603,01/01/2020
253,TX2100000,Shelby County Sheriff's Office,County,Texas,TX,West South Central,South,Region III,SHELBY,True,31.790272,-94.18487,05/01/2018
254,TX1900600,Emory,City,Texas,TX,West South Central,South,Region III,RAINS,True,,,06/01/2019
255,TX1451000,Jewett Police Department,City,Texas,TX,West South Central,South,Region III,LEON,False,31.300493,-95.995622,
256,TX0200800,Lake Jackson Police Department,City,Texas,TX,West South Central,South,Region III,BRAZORIA,False,29.036402,-95.44871,
257,TX0571500,Irving Police Department,City,Texas,TX,West South Central,South,Region III,DALLAS,False,32.815025,-96.94995,
258,TX1701500,Stagecoach Police Department,City,Texas,TX,West South Central,South,Region III,MONTGOMERY,False,30.152172,-95.716515,07/01/2015
259,TX0920600,White Oak Police Department,City,Texas,TX,West South Central,South,Region III,GREGG,True,32.52135,-94.86098,10/01/2019
260,TX0141500,Independent School District: Killeen,Other,Texas,TX,West South Central,South,Region III,BELL,True,31.125202,-97.723404,09/01/2019
261,TX2370200,Waller Police Department,City,Texas,TX,West South Central,South,Region III,HARRIS; WALLER,True,30.013578,-95.982102,02/01/2018
262,TX0710100,Anthony Police Department,City,Texas,TX,West South Central,South,Region III,EL PASO,False,31.766403,-106.24139,
263,TX1940300,Bogata Police Department,City,Texas,TX,West South Central,South,Region III,RED RIVER,False,33.619625,-95.048429,
264,TX1013500,Independent School District:,Other,Texas,TX,West South Central,South,Region III,HARRIS,False,,,
265,TX1010000,Harris County Sheriff's Office,County,Texas,TX,West South Central,South,Region III,HARRIS,False,29.761494,-95.3576,
266,TX2500100,Alba,City,Texas,TX,West South Central,South,Region III,RAINS; WOOD,True,,,01/01/2019
267,TX0940200,Schertz Police Department,City,Texas,TX,West South Central,South,Region III,COMAL; BEXAR; GUADALUPE,False,29.583532,-97.948858,
268,TX0150200,Balcones Heights Police Department,City,Texas,TX,West South Central,South,Region III,BEXAR,True,29.490864,-98.55476,05/01/2018
269,TX1390200,Paris Police Department,City,Texas,TX,West South Central,South,Region III,LAMAR,False,33.65059,-95.52379,
270,TX1520100,Idalou Police Department,City,Texas,TX,West South Central,South,Region III,LUBBOCK,True,33.611469,-101.819944,01/01/2019
271,TX1000200,Silsbee Police Department,City,Texas,TX,West South Central,South,Region III,HARDIN,True,30.338036,-94.18288,01/01/2017
272,TX1880100,Amarillo Police Department,City,Texas,TX,West South Central,South,Region III,RANDALL; POTTER,True,35.398675,-101.893804,10/01/1999
273,TX0201900,Brookside Village Police Department,City,Texas,TX,West South Central,South,Region III,BRAZORIA,False,29.167817,-95.434647,
274,TX2180100,Sonora Police Department,City,Texas,TX,West South Central,South,Region III,SUTTON,True,30.568474,-100.642075,01/01/2019
275,TX1660200,Rockdale Police Department,City,Texas,TX,West South Central,South,Region III,MILAM,True,30.791242,-96.984395,01/01/2017
276,TX1011500,Pasadena Police Department,City,Texas,TX,West South Central,South,Region III,HARRIS,True,29.690775,-95.19727,01/01/2019
277,TX2030000,San Augustine County Sheriff's Office,County,Texas,TX,West South Central,South,Region III,SAN AUGUSTINE,True,31.382449,-94.16318,01/01/2019
278,TX0170000,Borden County Sheriff's Office,County,Texas,TX,West South Central,South,Region III,BORDEN,True,32.73859,-101.439199,05/01/2019
279,TX0153900,Fair Oaks Ranch Police Department,City,Texas,TX,West South Central,South,Region III,COMAL; KENDALL; BEXAR,True,29.731081,-98.62902,05/01/2019
280,TX2202900,White Settlement Police Department,City,Texas,TX,West South Central,South,Region III,TARRANT,False,32.76616,-97.471596,
281,TX0432700,Josephine,City,Texas,TX,West South Central,South,Region III,COLLIN,False,,,
282,TX1670000,Mills County Sheriff's Office,County,Texas,TX,West South Central,South,Region III,MILLS,True,31.494888,-98.594623,01/01/2019
283,TX2450200,Raymondville Police Department,City,Texas,TX,West South Central,South,Region III,WILLACY,False,26.481844,-97.78723,01/01/2020
284,TX2020200,Pineland Police Department,City,Texas,TX,West South Central,South,Region III,SABINE,True,31.3433,-93.851913,08/01/2019
285,TX1012600,West University Place Police Department,City,Texas,TX,West South Central,South,Region III,HARRIS,False,29.714615,-95.43791,
286,TX2460000,Williamson County Sheriff's Office,County,Texas,TX,West South Central,South,Region III,WILLIAMSON,True,30.648024,-97.6788,10/01/2018
287,TX2201800,Lakeside Police Department,City,Texas,TX,West South Central,South,Region III,TARRANT,False,32.823067,-97.495544,
288,TX101619E,Houston Baptist University,University or College,Texas,TX,West South Central,South,Region III,HARRIS,False,,,
289,TX2490900,Boyd Police Department,City,Texas,TX,West South Central,South,Region III,WISE,False,33.219095,-97.653997,
290,TX0840800,League City Police Department,City,Texas,TX,West South Central,South,Region III,HARRIS; GALVESTON,True,29.502487,-95.094574,10/01/2019
291,TX1021300,Independent School District: Hallsville,Other,Texas,TX,West South Central,South,Region III,HARRISON,False,32.547991,-94.374434,
292,TX1080700,La Villa Police Department,City,Texas,TX,West South Central,South,Region III,HIDALGO,False,26.396384,-98.18099,07/01/2015
293,TX0280900,Martindale Police Department,City,Texas,TX,West South Central,South,Region III,CALDWELL,False,29.840062,-97.630394,
294,TX057529E,Southern Methodist University,University or College,Texas,TX,West South Central,South,Region III,DALLAS,False,,,
295,TX0300000,Callahan County Sheriff's Office,County,Texas,TX,West South Central,South,Region III,CALLAHAN,False,32.29315,-99.372249,
296,TX0570600,Cockrell Hill Police Department,City,Texas,TX,West South Central,South,Region III,DALLAS,False,32.766987,-96.778424,
297,TX0711400,Horizon City Police Department,City,Texas,TX,West South Central,South,Region III,EL PASO,False,31.766403,-106.24139,
298,TX0140600,Rogers,City,Texas,TX,West South Central,South,Region III,BELL,True,,,01/01/2019
299,TX1020000,Harrison County Sheriff's Office,County,Texas,TX,West South Central,South,Region III,HARRISON,True,32.547991,-94.374434,07/01/2018
300,TX2430400,Iowa Park Police Department,City,Texas,TX,West South Central,South,Region III,WICHITA,True,33.991103,-98.716851,01/01/1999
301,TX0490800,Oak Ridge Police Department,City,Texas,TX,West South Central,South,Region III,COOKE,False,33.648117,-97.04071,
302,TX0430300,Farmersville Police Department,City,Texas,TX,West South Central,South,Region III,COLLIN,True,33.16445,-96.36109,04/01/2019
303,TX1070700,Gun Barrel City Police Department,City,Texas,TX,West South Central,South,Region III,HENDERSON,True,32.211633,-95.853418,06/01/2018
304,TX0790500,Sugar Land Police Department,City,Texas,TX,West South Central,South,Region III,FORT BEND,True,29.526602,-95.771015,10/01/2019
305,TX0510100,Paducah Police Department,City,Texas,TX,West South Central,South,Region III,COTTLE,False,34.091906,-100.276442,
306,TX1230100,Beaumont Police Department,City,Texas,TX,West South Central,South,Region III,JEFFERSON,False,29.854,-94.149331,
307,TX0921500,Lakeport,City,Texas,TX,West South Central,South,Region III,GREGG,True,,,03/01/2019
308,TX0210400,Texas A&M University: College Station,University or College,Texas,TX,West South Central,South,Region III,BRAZOS,True,30.656725,-96.302389,08/01/2019
309,TX1160300,Greenville Police Department,City,Texas,TX,West South Central,South,Region III,HUNT,True,33.123292,-96.084202,04/01/2019
310,TX2520000,Young County Sheriff's Office,County,Texas,TX,West South Central,South,Region III,YOUNG,True,33.158787,-98.678267,02/01/2019
311,TX0660000,Duval County Sheriff's Office,County,Texas,TX,West South Central,South,Region III,DUVAL,True,27.681123,-98.497393,01/01/2018
312,TX0151500,Windcrest Police Department,City,Texas,TX,West South Central,South,Region III,BEXAR,True,29.516685,-98.38106,12/01/2019
313,TX2200700,Dalworthington Gardens Police Department,City,Texas,TX,West South Central,South,Region III,TARRANT,True,32.70231,-97.1553,09/01/2019
314,TX0230000,Briscoe County Sheriff's Office,County,Texas,TX,West South Central,South,Region III,BRISCOE,True,34.525172,-101.205893,08/01/2018
315,TX1720200,Lone Star Police Department,City,Texas,TX,West South Central,South,Region III,MORRIS,True,33.116466,-94.731265,01/01/2019
316,TX0700500,Midlothian Police Department,City,Texas,TX,West South Central,South,Region III,ELLIS,True,32.347294,-96.798231,10/01/2019
317,TX0010100,Palestine Police Department,City,Texas,TX,West South Central,South,Region III,ANDERSON,True,31.763123,-95.63455,02/01/2017
318,TX2300100,Big Sandy Police Department,City,Texas,TX,West South Central,South,Region III,UPSHUR,False,32.735349,-94.941184,
319,TX0841900,Jamaica Beach Police Department,City,Texas,TX,West South Central,South,Region III,GALVESTON,True,29.228364,-94.895428,08/01/2019
320,TX1710400,Cactus Police Department,City,Texas,TX,West South Central,South,Region III,MOORE,True,35.835676,-101.890502,01/01/2018
321,TX0910600,Whitesboro Police Department,City,Texas,TX,West South Central,South,Region III,GRAYSON,False,33.624508,-96.675699,
322,TX0220200,Sul Ross State University,University or College,Texas,TX,West South Central,South,Region III,BREWSTER,True,30.356956,-103.65161,04/01/2018
323,TX1840700,"Reno, Parker County",City,Texas,TX,West South Central,South,Region III,TARRANT; PARKER,False,,,
324,TX0160200,Johnson City Police Department,City,Texas,TX,West South Central,South,Region III,BLANCO,False,30.265605,-98.399977,
325,TX0571700,Lancaster Police Department,City,Texas,TX,West South Central,South,Region III,DALLAS,True,32.766987,-96.778424,01/01/2000
326,TX1730000,Motley County Sheriff's Office,County,Texas,TX,West South Central,South,Region III,MOTLEY,False,34.057899,-100.793152,
327,TX1300000,Kendall County Sheriff's Office,County,Texas,TX,West South Central,South,Region III,KENDALL,True,29.804724,-98.722595,11/01/2016
328,TX0791600,Independent School District: Fort Bend,Other,Texas,TX,West South Central,South,Region III,FORT BEND,False,29.526602,-95.771015,
329,TX0920400,Kilgore Police Department,City,Texas,TX,West South Central,South,Region III,RUSK; GREGG,True,32.486397,-94.816276,01/01/2018
330,TX0380100,Childress Police Department,City,Texas,TX,West South Central,South,Region III,CHILDRESS,True,34.529337,-100.208336,01/01/2019
331,TX1940100,Clarksville Police Department,City,Texas,TX,West South Central,South,Region III,RED RIVER,False,33.610325,-95.05523,
332,TX0141700,Troy Police Department,City,Texas,TX,West South Central,South,Region III,BELL,False,31.042303,-97.481374,
333,TX1010200,Bellaire Police Department,City,Texas,TX,West South Central,South,Region III,HARRIS,False,29.702028,-95.46946,
334,TX0880000,Goliad County Sheriff's Office,County,Texas,TX,West South Central,South,Region III,GOLIAD,True,28.665903,-97.3847,01/01/2012
335,TX1701700,Montgomery Police Department,City,Texas,TX,West South Central,South,Region III,MONTGOMERY,True,30.299402,-95.504008,10/01/2019
336,TX1161400,Quinlan Police Department,City,Texas,TX,West South Central,South,Region III,HUNT,False,33.123292,-96.084202,
337,TX0720100,Dublin Police Department,City,Texas,TX,West South Central,South,Region III,ERATH,True,32.08482,-98.34084,11/01/2019
338,TX2500300,Mineola Police Department,City,Texas,TX,West South Central,South,Region III,WOOD,False,32.675674,-95.48656,
339,TX1380200,Knox City Police Department,City,Texas,TX,West South Central,South,Region III,KNOX,True,33.616657,-99.747112,07/01/2018
340,TX0370300,Rusk Police Department,City,Texas,TX,West South Central,South,Region III,CHEROKEE,True,31.79308,-95.150444,10/01/2008
341,TX0940000,Guadalupe County Sheriff's Office,County,Texas,TX,West South Central,South,Region III,GUADALUPE,False,29.602009,-97.97006,
342,TX1170100,Borger Police Department,City,Texas,TX,West South Central,South,Region III,HUTCHINSON,True,35.837047,-101.362746,07/01/2016
343,TX1390000,Lamar County Sheriff's Office,County,Texas,TX,West South Central,South,Region III,LAMAR,False,33.65229,-95.55757,
344,TX1990800,Fate,City,Texas,TX,West South Central,South,Region III,ROCKWALL,True,,,01/01/2017
345,TX1082900,Independent School District: Weslaco,Other,Texas,TX,West South Central,South,Region III,HIDALGO,False,26.396384,-98.18099,
346,TX1620100,Eagle Pass Police Department,City,Texas,TX,West South Central,South,Region III,MAVERICK,False,28.705912,-100.500465,
347,TX0950400,Plainview Police Department,City,Texas,TX,West South Central,South,Region III,HALE,True,34.189625,-101.70323,01/01/2018
348,TX1072300,Independent School District: Athens,Other,Texas,TX,West South Central,South,Region III,HENDERSON,False,32.204185,-95.8588,
349,TX1840400,Hudson Oaks Police Department,City,Texas,TX,West South Central,South,Region III,PARKER,True,32.76851,-97.712,05/01/2018
350,TX1370300,Texas A&M University: Kingsville,University or College,Texas,TX,West South Central,South,Region III,KLEBERG,False,27.438735,-97.66062,
351,TX2510100,Denver City Police Department,City,Texas,TX,West South Central,South,Region III,YOAKUM,False,33.162398,-102.832242,
352,TX0572400,University Park Police Department,City,Texas,TX,West South Central,South,Region III,DALLAS,True,32.845383,-96.797325,06/01/2018
353,TX0310700,Primera Police Department,City,Texas,TX,West South Central,South,Region III,CAMERON,False,26.102923,-97.478958,
354,TX2120000,Smith County Sheriff's Office,County,Texas,TX,West South Central,South,Region III,SMITH,False,32.375106,-95.268743,
355,TX1460100,Cleveland Police Department,City,Texas,TX,West South Central,South,Region III,MONTGOMERY; LIBERTY,False,30.342987,-95.07747,
356,TX2202300,River Oaks Police Department,City,Texas,TX,West South Central,South,Region III,TARRANT,True,32.778767,-97.393,09/01/2019
357,TX2350100,Victoria Police Department,City,Texas,TX,West South Central,South,Region III,VICTORIA,True,28.79637,-96.971198,04/01/2002
358,TX0490100,Gainesville Police Department,City,Texas,TX,West South Central,South,Region III,COOKE,True,33.641155,-97.14656,09/01/2019
359,TX1016600,Lakeview Police Department,City,Texas,TX,West South Central,South,Region III,HARRIS,True,29.857273,-95.393037,10/01/2019
360,TX0730100,Lott Police Department,City,Texas,TX,West South Central,South,Region III,FALLS,False,31.25193,-96.934127,
361,TX0140900,Central Texas College,University or College,Texas,TX,West South Central,South,Region III,BELL,False,31.042303,-97.481374,
362,TX0960200,Estelline Police Department,City,Texas,TX,West South Central,South,Region III,HALL,False,34.453189,-100.576343,
363,TX1850200,Friona Police Department,City,Texas,TX,West South Central,South,Region III,PARMER,True,34.532163,-102.784853,07/01/2018
364,TX1360500,Brackettville Police Department,City,Texas,TX,West South Central,South,Region III,KINNEY,False,29.347086,-100.4177,
365,TX1083200,Sullivan City Police Department,City,Texas,TX,West South Central,South,Region III,HIDALGO,True,26.396384,-98.18099,10/01/2019
366,TX0260000,Burleson County Sheriff's Office,County,Texas,TX,West South Central,South,Region III,BURLESON,False,30.526308,-96.70823,
367,TX1391000,Reno Police Department,City,Texas,TX,West South Central,South,Region III,LAMAR,True,33.667263,-95.570348,01/01/2016
368,TX0203200,Independent School District: Alvin,Other,Texas,TX,West South Central,South,Region III,BRAZORIA,False,29.167817,-95.434647,
369,TX1150000,Hudspeth County Sheriff's Office,County,Texas,TX,West South Central,South,Region III,HUDSPETH,True,31.450868,-105.377549,04/01/2018
370,TX2340300,Grand Saline Police Department,City,Texas,TX,West South Central,South,Region III,VAN ZANDT,True,32.558948,-95.836391,06/01/2018
371,TX227289E,Austin Community College District,University or College,Texas,TX,West South Central,South,Region III,TRAVIS,True,,,01/01/2018
372,TX1291500,Independent School District: Kaufman,Other,Texas,TX,West South Central,South,Region III,KAUFMAN,False,32.58366,-96.312706,
373,TX0110000,Bastrop County Sheriff's Office,County,Texas,TX,West South Central,South,Region III,BASTROP,False,30.102219,-97.30746,
374,TX0970000,Hamilton County Sheriff's Office,County,Texas,TX,West South Central,South,Region III,HAMILTON,True,31.6949,-98.12756,09/01/2019
375,TX1520600,Texas Tech University: Lubbock,University or College,Texas,TX,West South Central,South,Region III,LUBBOCK,True,33.611469,-101.819944,07/01/2017
376,TX0460700,Garden Ridge Police Department,City,Texas,TX,West South Central,South,Region III,COMAL,True,29.806091,-98.260554,05/01/2018
377,TX0020100,Andrews Police Department,City,Texas,TX,West South Central,South,Region III,ANDREWS,True,32.312258,-102.640206,05/01/2019
378,TX0250200,Brownwood Police Department,City,Texas,TX,West South Central,South,Region III,BROWN,True,31.727455,-99.001884,01/01/2018
379,TX2201200,Fort Worth Police Department,City,Texas,TX,West South Central,South,Region III,PARKER; DENTON; TARRANT,True,32.77204,-97.291291,10/01/2005
380,TX0290900,Independent School District: Calhoun County,Other,Texas,TX,West South Central,South,Region III,CALHOUN,True,28.445366,-96.5833,09/01/2017
381,TX2270000,Travis County Sheriff's Office,County,Texas,TX,West South Central,South,Region III,TRAVIS,True,30.239513,-97.69127,09/01/2019
382,TX0420000,Coleman County Sheriff's Office,County,Texas,TX,West South Central,South,Region III,COLEMAN,False,31.83102,-99.42296,
383,TX2500400,Quitman Police Department,City,Texas,TX,West South Central,South,Region III,WOOD,True,32.783588,-95.382166,07/01/2019
384,TX0150700,Hill Country Village Police Department,City,Texas,TX,West South Central,South,Region III,BEXAR,True,29.448671,-98.520147,01/01/2019
385,TX1012000,Southside Place Police Department,City,Texas,TX,West South Central,South,Region III,HARRIS,True,29.714529,-95.43381,06/01/2018
386,TX0500100,Copperas Cove Police Department,City,Texas,TX,West South Central,South,Region III,LAMPASAS; CORYELL,False,31.122324,-97.90073,
387,TX2190100,Happy Police Department,City,Texas,TX,West South Central,South,Region III,RANDALL; SWISHER,False,34.53046,-101.732852,07/01/2015
388,TX0711600,Socorro Police Department,City,Texas,TX,West South Central,South,Region III,EL PASO,False,31.67125,-106.27893,
389,TX0432000,Lavon Police Department,City,Texas,TX,West South Central,South,Region III,COLLIN,False,33.194745,-96.579846,
390,TX1700000,Montgomery County Sheriff's Office,County,Texas,TX,West South Central,South,Region III,MONTGOMERY,False,30.335955,-95.453255,
391,TX0180100,Clifton Police Department,City,Texas,TX,West South Central,South,Region III,BOSQUE,True,31.900764,-97.637632,10/01/2019
392,TX1070100,Athens Police Department,City,Texas,TX,West South Central,South,Region III,HENDERSON,True,32.208633,-95.85635,01/01/2018
393,TX0010300,Frankston Police Department,City,Texas,TX,West South Central,South,Region III,HENDERSON; ANDERSON,True,31.841266,-95.661744,10/01/2016
394,TX0790300,Rosenberg Police Department,City,Texas,TX,West South Central,South,Region III,FORT BEND,True,29.526602,-95.771015,01/01/2018
395,TX0820000,Frio County Sheriff's Office,County,Texas,TX,West South Central,South,Region III,FRIO,False,28.887709,-99.091835,
396,TX1014200,University of Houston: Downtown Campus,University or College,Texas,TX,West South Central,South,Region III,HARRIS,True,29.764938,-95.35893,04/01/2019
397,TX2200100,Arlington Police Department,City,Texas,TX,West South Central,South,Region III,TARRANT,True,32.73912,-97.113525,02/01/2016
398,TX0700700,Palmer Police Department,City,Texas,TX,West South Central,South,Region III,ELLIS,False,32.347294,-96.798231,
399,TX1550000,McLennan County Sheriff's Office,County,Texas,TX,West South Central,South,Region III,MCLENNAN,True,31.55447,-97.1364,02/01/1998
400,TX2030100,San Augustine Police Department,City,Texas,TX,West South Central,South,Region III,SAN AUGUSTINE,False,31.382449,-94.16318,
401,TX2470700,La Vernia Police Department,City,Texas,TX,West South Central,South,Region III,WILSON,False,29.173883,-98.086734,
402,TX2430200,Electra Police Department,City,Texas,TX,West South Central,South,Region III,WICHITA,True,34.029793,-98.918495,01/01/2017
403,TX0570000,Dallas County Sheriff's Office,County,Texas,TX,West South Central,South,Region III,DALLAS,False,32.766987,-96.778424,
404,TX0090100,Muleshoe Police Department,City,Texas,TX,West South Central,South,Region III,BAILEY,True,34.22386,-102.72415,05/01/2018
405,TX2460900,Cedar Park Police Department,City,Texas,TX,West South Central,South,Region III,TRAVIS; WILLIAMSON,True,30.52114,-97.823265,09/01/2019
406,TX0271100,Horseshoe Bay Police Department,City,Texas,TX,West South Central,South,Region III,BURNET; LLANO,True,30.78963,-98.201187,02/01/2018
407,TX0791400,Fulshear,City,Texas,TX,West South Central,South,Region III,FORT BEND,True,29.526602,-95.771015,01/01/2018
408,TX0041000,Fulton Police Department,City,Texas,TX,West South Central,South,Region III,ARANSAS,False,,,
409,TX2203600,Dallas-Fort Worth International Airport,Other,Texas,TX,West South Central,South,Region III,TARRANT,True,32.77204,-97.291291,07/01/2003
410,TX2272400,Independent School District: Austin,Other,Texas,TX,West South Central,South,Region III,TRAVIS,True,30.239513,-97.69127,03/01/2019
411,TX1551100,Robinson Police Department,City,Texas,TX,West South Central,South,Region III,MCLENNAN,True,31.468706,-97.11562,08/01/2019
412,TX0940600,Cibolo Police Department,City,Texas,TX,West South Central,South,Region III,GUADALUPE,True,29.583532,-97.948858,07/01/2019
413,TX1770300,Sweetwater Police Department,City,Texas,TX,West South Central,South,Region III,NOLAN,True,32.312338,-100.418108,04/01/2017
414,TX0840900,Texas City Police Department,City,Texas,TX,West South Central,South,Region III,GALVESTON,True,29.393375,-94.90877,11/01/2019
415,TX0810200,Teague Police Department,City,Texas,TX,West South Central,South,Region III,FREESTONE,True,31.70126,-96.144487,05/01/2018
416,TX0571100,Garland Police Department,City,Texas,TX,West South Central,South,Region III,ROCKWALL; COLLIN; DALLAS,False,32.908943,-96.65579,
417,TX1780100,Bishop Police Department,City,Texas,TX,West South Central,South,Region III,NUECES,False,27.738129,-97.518441,
418,TX1690200,Nocona Police Department,City,Texas,TX,West South Central,South,Region III,MONTAGUE,False,33.788044,-97.725525,
419,TX2000700,Miles Police Department,City,Texas,TX,West South Central,South,Region III,RUNNELS,True,31.845112,-99.982715,01/01/2019
420,TX1370100,Kingsville Police Department,City,Texas,TX,West South Central,South,Region III,KLEBERG,False,27.438735,-97.66062,
421,TX0430000,Collin County Sheriff's Office,County,Texas,TX,West South Central,South,Region III,COLLIN,True,33.248085,-96.635704,01/01/1997
422,TX0572600,University of Texas: Southwestern Medical School,University or College,Texas,TX,West South Central,South,Region III,DALLAS,False,32.81252,-96.838135,
423,TX0310900,San Benito Police Department,City,Texas,TX,West South Central,South,Region III,CAMERON,False,26.102923,-97.478958,
424,TX0950200,Hale Center Police Department,City,Texas,TX,West South Central,South,Region III,HALE,False,34.068436,-101.822888,
425,TX1160000,Hunt County Sheriff's Office,County,Texas,TX,West South Central,South,Region III,HUNT,True,33.13758,-96.10548,07/01/2019
426,TX2371000,Independent School District: Hempstead,Other,Texas,TX,West South Central,South,Region III,WALLER,False,30.013578,-95.982102,
427,TX1460300,Dayton Police Department,City,Texas,TX,West South Central,South,Region III,LIBERTY,True,30.046,-94.88714,05/01/2017
428,TX0843100,Independent School District: Galveston,Other,Texas,TX,West South Central,South,Region III,GALVESTON,False,29.228364,-94.895428,
429,TX0730300,Rosebud Police Department,City,Texas,TX,West South Central,South,Region III,FALLS,False,31.25193,-96.934127,
430,TX2202500,Sansom Park Village Police Department,City,Texas,TX,West South Central,South,Region III,TARRANT,False,32.803463,-97.40217,
431,TX1083000,Penitas Police Department,City,Texas,TX,West South Central,South,Region III,HIDALGO,True,26.396384,-98.18099,01/01/2019
432,TX1011100,Jacinto City Police Department,City,Texas,TX,West South Central,South,Region III,HARRIS,False,29.76755,-95.24478,
433,TX0203000,Iowa Colony Police Department,City,Texas,TX,West South Central,South,Region III,BRAZORIA,True,29.167817,-95.434647,06/01/2019
434,TX1630100,Castroville Police Department,City,Texas,TX,West South Central,South,Region III,MEDINA,True,29.353661,-99.111085,06/01/2018
435,TX0960000,Hall County Sheriff's Office,County,Texas,TX,West South Central,South,Region III,HALL,True,34.453189,-100.576343,01/01/2018
436,TX0100000,Bandera County Sheriff's Office,County,Texas,TX,West South Central,South,Region III,BANDERA,True,29.755681,-99.26059,01/01/2019
437,TX1850000,Parmer County Sheriff's Office,County,Texas,TX,West South Central,South,Region III,PARMER,False,34.532163,-102.784853,
438,TX2340500,Wills Point Police Department,City,Texas,TX,West South Central,South,Region III,VAN ZANDT,True,32.558948,-95.836391,05/01/2018
439,TX1521500,New Deal Police Department,City,Texas,TX,West South Central,South,Region III,LUBBOCK,False,33.611469,-101.819944,
440,TX0740100,Bonham Police Department,City,Texas,TX,West South Central,South,Region III,FANNIN,False,33.578056,-96.17664,
441,TX0030100,Diboll Police Department,City,Texas,TX,West South Central,South,Region III,ANGELINA,True,31.251951,-94.611056,03/01/2019
442,TX1231000,Lamar University: Beaumont,University or College,Texas,TX,West South Central,South,Region III,JEFFERSON,False,29.854,-94.149331,
443,TX1810800,Rose City Police Department,City,Texas,TX,West South Central,South,Region III,ORANGE,False,30.097921,-94.06103,
444,TX2440000,Wilbarger County Sheriff's Office,County,Texas,TX,West South Central,South,Region III,WILBARGER,True,34.08492,-99.24244,05/01/2019
445,TX2201400,Haltom City Police Department,City,Texas,TX,West South Central,South,Region III,TARRANT,False,32.77204,-97.291291,
446,TX0680800,Independent School District: Ector County,Other,Texas,TX,West South Central,South,Region III,ECTOR,False,31.865301,-102.542507,
447,TX1291300,Independent School District:,Other,Texas,TX,West South Central,South,Region III,KAUFMAN,True,,,01/01/2019
448,TX1084100,University of Texas: Rio Grande Valley,University or College,Texas,TX,West South Central,South,Region III,HIDALGO,False,,,
449,TX1015700,Houston Metropolitan Transit Authority,Other,Texas,TX,West South Central,South,Region III,HARRIS,False,29.857273,-95.393037,
450,TX2190300,Tulia Police Department,City,Texas,TX,West South Central,South,Region III,SWISHER,True,34.538555,-101.76446,01/01/2018
451,TX0250000,Brown County Sheriff's Office,County,Texas,TX,West South Central,South,Region III,BROWN,True,31.727455,-99.001884,06/01/2019
452,TX0420200,Santa Anna Police Department,City,Texas,TX,West South Central,South,Region III,COLEMAN,True,31.73982,-99.323524,06/01/2019
453,TX2360100,Huntsville Police Department,City,Texas,TX,West South Central,South,Region III,WALKER,True,30.723814,-95.551796,06/01/2016
454,TX1520400,Slaton Police Department,City,Texas,TX,West South Central,South,Region III,LUBBOCK,False,33.438923,-101.64312,
455,TX0579000,Dallas County Community College District,University or College,Texas,TX,West South Central,South,Region III,DALLAS,True,,,03/01/2019
456,TX0150900,Kirby Police Department,City,Texas,TX,West South Central,South,Region III,BEXAR,True,29.467829,-98.38129,07/01/2018
457,TX0890100,Gonzales Police Department,City,Texas,TX,West South Central,South,Region III,GONZALES,False,29.468704,-97.477738,
458,TX2210100,Abilene Police Department,City,Texas,TX,West South Central,South,Region III,JONES; TAYLOR,True,32.295054,-99.893644,06/01/2017
459,TX2101300,Timpson Police Department,City,Texas,TX,West South Central,South,Region III,SHELBY,False,31.790137,-94.142565,
460,TX0570200,Balch Springs Police Department,City,Texas,TX,West South Central,South,Region III,DALLAS,True,32.719345,-96.61623,02/01/2017
461,TX2260000,Tom Green County Sheriff's Office,County,Texas,TX,West South Central,South,Region III,TOM GREEN,False,31.46255,-100.4414,
462,TX0190100,De Kalb Police Department,City,Texas,TX,West South Central,South,Region III,BOWIE,False,33.446051,-94.422375,
463,TX1530200,Tahoka Police Department,City,Texas,TX,West South Central,South,Region III,LYNN,True,33.178412,-101.818493,01/01/2018
464,TX2200300,Bedford Police Department,City,Texas,TX,West South Central,South,Region III,TARRANT,True,32.77204,-97.291291,01/01/1997
465,TX1290200,Kaufman Police Department,City,Texas,TX,West South Central,South,Region III,KAUFMAN,True,32.587692,-96.308975,07/01/2016
466,TX2271100,Lakeway Police Department,City,Texas,TX,West South Central,South,Region III,TRAVIS,True,30.362913,-97.97955,01/01/2015
467,TX2204900,University of North Texas: Health Science Center,University or College,Texas,TX,West South Central,South,Region III,TARRANT,False,32.77204,-97.291291,
468,TX0790100,Missouri City Police Department,City,Texas,TX,West South Central,South,Region III,HARRIS; FORT BEND,True,29.526602,-95.771015,01/01/2019
469,TX1710000,Moore County Sheriff's Office,County,Texas,TX,West South Central,South,Region III,MOORE,True,35.858677,-101.97188,02/01/2019
470,TX2430000,Wichita County Sheriff's Office,County,Texas,TX,West South Central,South,Region III,WICHITA,False,33.991103,-98.716851,
471,TX1540000,McCulloch County Sheriff's Office,County,Texas,TX,West South Central,South,Region III,MCCULLOCH,True,31.205477,-99.359856,01/01/2019
472,TX1780300,Robstown Police Department,City,Texas,TX,West South Central,South,Region III,NUECES,False,27.738129,-97.518441,
473,TX1210100,Jasper Police Department,City,Texas,TX,West South Central,South,Region III,JASPER,True,30.916101,-94.000305,06/01/2018
474,TX0571300,Highland Park Police Department,City,Texas,TX,West South Central,South,Region III,DALLAS,True,32.8289,-96.79652,01/01/1998
475,TX1860000,Pecos County Sheriff's Office,County,Texas,TX,West South Central,South,Region III,PECOS,False,30.770894,-102.71986,
476,TX0580000,Dawson County Sheriff's Office,County,Texas,TX,West South Central,South,Region III,DAWSON,True,32.741934,-101.947322,12/01/2019
477,TX1050700,Kyle Police Department,City,Texas,TX,West South Central,South,Region III,HAYS,True,30.061225,-98.029267,06/01/2018
478,TX1013300,Texas Southern University,University or College,Texas,TX,West South Central,South,Region III,HARRIS,False,29.724693,-95.36266,
479,TX0080100,Bellville Police Department,City,Texas,TX,West South Central,South,Region III,AUSTIN,True,29.949772,-96.25513,03/01/2017
480,TX0920800,Kilgore College,University or College,Texas,TX,West South Central,South,Region III,GREGG,True,,,01/01/2019
481,TX0613200,Ponder Police Department,City,Texas,TX,West South Central,South,Region III,DENTON,True,33.205005,-97.119046,01/01/2017
482,TX0791200,Arcola Police Department,City,Texas,TX,West South Central,South,Region III,FORT BEND,False,29.510267,-95.4664,01/01/2020
483,TX2272200,Jonestown Police Department,City,Texas,TX,West South Central,South,Region III,TRAVIS,False,30.239513,-97.69127,
484,TX2110000,Sherman County Sheriff's Office,County,Texas,TX,West South Central,South,Region III,SHERMAN,False,36.277628,-101.894716,
485,TX2400600,Texas A&M International University,University or College,Texas,TX,West South Central,South,Region III,WEBB,False,27.573874,-99.43269,
486,TX0810000,Freestone County Sheriff's Office,County,Texas,TX,West South Central,South,Region III,FREESTONE,True,31.70126,-96.144487,03/01/2019
487,TX0070300,Poteet Police Department,City,Texas,TX,West South Central,South,Region III,ATASCOSA,False,28.891397,-98.535381,
488,TX1690000,Montague County Sheriff's Office,County,Texas,TX,West South Central,South,Region III,MONTAGUE,True,33.678356,-97.725014,06/01/2019
489,TX1000000,Hardin County Sheriff's Office,County,Texas,TX,West South Central,South,Region III,HARDIN,False,30.329612,-94.393149,
490,TX015319E,Trinity University,University or College,Texas,TX,West South Central,South,Region III,BEXAR,False,,,
491,TX1051200,Buda Police Department,City,Texas,TX,West South Central,South,Region III,HAYS,False,30.061225,-98.029267,
492,TX0270200,Marble Falls Police Department,City,Texas,TX,West South Central,South,Region III,BURNET,True,30.78963,-98.201187,09/01/1997
493,TX1840000,Parker County Sheriff's Office,County,Texas,TX,West South Central,South,Region III,PARKER,True,32.75919,-97.787056,01/01/2015
494,TX1702000,Independent School District: Conroe,Other,Texas,TX,West South Central,South,Region III,MONTGOMERY,True,30.29126,-95.415245,01/01/2019
495,TX2461800,Thrall Police Department,City,Texas,TX,West South Central,South,Region III,WILLIAMSON,False,30.648024,-97.6788,
496,TX1016200,Independent School District: Alief,Other,Texas,TX,West South Central,South,Region III,HARRIS,False,29.857273,-95.393037,
497,TX0470100,Comanche Police Department,City,Texas,TX,West South Central,South,Region III,COMANCHE,True,31.898405,-98.6037,11/01/2019
498,TX1790100,Perryton Police Department,City,Texas,TX,West South Central,South,Region III,OCHILTREE,True,36.278744,-100.815864,11/01/2016
499,TX0910100,Collinsville Police Department,City,Texas,TX,West South Central,South,Region III,GRAYSON,False,33.624508,-96.675699,
500,TX0040100,Aransas Pass Police Department,City,Texas,TX,West South Central,South,Region III,NUECES; ARANSAS; SAN PATRICIO,True,28.011786,-97.517162,05/01/2019
501,TX2141100,Independent School District:,Other,Texas,TX,West South Central,South,Region III,STARR,True,,,03/01/2019
502,TX221109E,Hardin-Simmons University,University or College,Texas,TX,West South Central,South,Region III,TAYLOR,False,,,
503,TX1410000,Lampasas County Sheriff's Office,County,Texas,TX,West South Central,South,Region III,LAMPASAS,True,31.196731,-98.240889,07/01/2019
504,TX0572000,Richardson Police Department,City,Texas,TX,West South Central,South,Region III,COLLIN; DALLAS,True,32.766987,-96.778424,01/01/2019
505,TX0310300,Harlingen Police Department,City,Texas,TX,West South Central,South,Region III,CAMERON,True,26.102923,-97.478958,01/01/2018
506,TX2120400,Tyler Police Department,City,Texas,TX,West South Central,South,Region III,SMITH,True,32.3517,-95.30884,01/01/2006
507,TX0620300,Yorktown Police Department,City,Texas,TX,West South Central,South,Region III,DEWITT,False,29.082346,-97.361654,
508,TX1010900,Humble Police Department,City,Texas,TX,West South Central,South,Region III,HARRIS,False,29.998848,-95.2683,
509,TX0750100,La Grange Police Department,City,Texas,TX,West South Central,South,Region III,FAYETTE,True,29.877886,-96.921231,07/01/2018
510,TX0320100,Pittsburg Police Department,City,Texas,TX,West South Central,South,Region III,CAMP,True,32.995117,-94.966225,01/01/2018
511,TX2290000,Tyler County Sheriff's Office,County,Texas,TX,West South Central,South,Region III,TYLER,True,30.781633,-94.415375,04/01/2019
512,TX0611000,Texas Woman's University,University or College,Texas,TX,West South Central,South,Region III,DENTON,True,33.205005,-97.119046,10/01/2018
513,TX1552600,Bruceville-Eddy Police Department,City,Texas,TX,West South Central,South,Region III,FALLS; MCLENNAN,True,31.306688,-97.24659,01/01/2019
514,TX2270400,West Lake Hills Police Department,City,Texas,TX,West South Central,South,Region III,TRAVIS,True,30.291775,-97.79938,01/01/2017
515,TX2140000,Starr County Sheriff's Office,County,Texas,TX,West South Central,South,Region III,STARR,False,26.383215,-98.8192,
516,TX1080100,Alamo Police Department,City,Texas,TX,West South Central,South,Region III,HIDALGO,True,26.186693,-98.11052,08/01/2018
517,TX0311400,Texas State Technical College: Harlingen,University or College,Texas,TX,West South Central,South,Region III,CAMERON,False,26.102923,-97.478958,
518,TX2121500,Bullard Police Department,City,Texas,TX,West South Central,South,Region III,CHEROKEE; SMITH,True,32.375106,-95.268743,06/01/2018
519,TX0980200,Spearman Police Department,City,Texas,TX,West South Central,South,Region III,HANSFORD,True,36.272847,-101.35693,06/01/2018
520,TX0630100,Spur Police Department,City,Texas,TX,West South Central,South,Region III,DICKENS,False,33.476532,-100.85538,
521,TX0200100,Alvin Police Department,City,Texas,TX,West South Central,South,Region III,BRAZORIA,True,29.410925,-95.24367,10/01/2019
522,TX0350100,Dimmitt Police Department,City,Texas,TX,West South Central,South,Region III,CASTRO,True,34.533621,-102.258786,12/01/2019
523,TX0780100,Crowell Police Department,City,Texas,TX,West South Central,South,Region III,FOARD,False,33.963306,-99.816828,
524,TX2480100,Kermit Police Department,City,Texas,TX,West South Central,South,Region III,WINKLER,False,31.831415,-103.055986,
525,TX2050100,Ingleside Police Department,City,Texas,TX,West South Central,South,Region III,SAN PATRICIO,False,28.011786,-97.517162,
526,TX0190300,Nash Police Department,City,Texas,TX,West South Central,South,Region III,BOWIE,False,33.446051,-94.422375,
527,TX2420000,Wheeler County Sheriff's Office,County,Texas,TX,West South Central,South,Region III,WHEELER,True,35.392593,-100.253107,02/01/2019
528,TX1290000,Kaufman County Sheriff's Office,County,Texas,TX,West South Central,South,Region III,KAUFMAN,True,32.598944,-96.288378,06/01/2009
529,TX1550400,Hewitt Police Department,City,Texas,TX,West South Central,South,Region III,MCLENNAN,True,31.549493,-97.201472,06/01/2016
530,TX0912300,Tom Bean Police Department,City,Texas,TX,West South Central,South,Region III,GRAYSON,False,33.624508,-96.675699,
531,TX0340300,Linden Police Department,City,Texas,TX,West South Central,South,Region III,CASS,False,33.083698,-94.357579,
532,TX0830200,Seminole Police Department,City,Texas,TX,West South Central,South,Region III,GAINES,True,32.719017,-102.64256,09/01/2017
533,TX1330100,Kerrville Police Department,City,Texas,TX,West South Central,South,Region III,KERR,True,30.059953,-99.353339,01/01/2019
534,TX1760100,Newton,City,Texas,TX,West South Central,South,Region III,NEWTON,True,30.786718,-93.73925,01/01/2019
535,TX0430900,Princeton Police Department,City,Texas,TX,West South Central,South,Region III,COLLIN,True,33.194745,-96.579846,01/01/2017
536,TX1280200,Kenedy Police Department,City,Texas,TX,West South Central,South,Region III,KARNES,True,28.818602,-97.850266,10/01/2019
537,TX0614500,Independent School District:,Other,Texas,TX,West South Central,South,Region III,DENTON,True,,,01/01/2019
538,TX0201200,Sweeny Police Department,City,Texas,TX,West South Central,South,Region III,BRAZORIA,True,29.167817,-95.434647,01/01/2018
539,TX1990200,Royse City Police Department,City,Texas,TX,West South Central,South,Region III,HUNT; COLLIN; ROCKWALL,True,32.898054,-96.404396,12/01/2011
540,TX1050100,San Marcos Police Department,City,Texas,TX,West South Central,South,Region III,CALDWELL; HAYS,True,30.061225,-98.029267,12/01/2018
541,TX1017300,Independent School District: Aldine,Other,Texas,TX,West South Central,South,Region III,HARRIS,True,29.935019,-95.35409,02/01/2017
542,TX2203200,Southlake Police Department,City,Texas,TX,West South Central,South,Region III,DENTON; TARRANT,False,32.939102,-97.183655,01/01/2020
543,TX2460500,Round Rock Police Department,City,Texas,TX,West South Central,South,Region III,TRAVIS; WILLIAMSON,False,30.64903,-97.605069,
544,TX1270400,Stamford Police Department,City,Texas,TX,West South Central,South,Region III,HASKELL; JONES,False,32.743709,-99.87443,
545,TX1140000,Howard County Sheriff's Office,County,Texas,TX,West South Central,South,Region III,HOWARD,True,32.303471,-101.438772,01/01/2019
546,TX2330100,Del Rio Police Department,City,Texas,TX,West South Central,South,Region III,VAL VERDE,False,29.383986,-100.90486,
547,TX0361000,Independent School District: Barbers Hill,Other,Texas,TX,West South Central,South,Region III,CHAMBERS,True,29.703933,-94.668875,01/01/2017
548,TX0341400,Bloomburg Police Department,City,Texas,TX,West South Central,South,Region III,CASS,False,33.083698,-94.357579,
549,TX1570000,Madison County Sheriff's Office,County,Texas,TX,West South Central,South,Region III,MADISON,True,30.961693,-95.892136,04/01/2019
550,TX1082300,Alton Police Department,City,Texas,TX,West South Central,South,Region III,HIDALGO,True,26.396384,-98.18099,09/01/2019
551,TX2410200,Wharton Police Department,City,Texas,TX,West South Central,South,Region III,WHARTON,True,29.323185,-96.09805,01/01/2018
552,TX1470300,Mexia Police Department,City,Texas,TX,West South Central,South,Region III,LIMESTONE,True,31.547543,-96.593623,01/01/2018
553,TX0313800,Los Indios,City,Texas,TX,West South Central,South,Region III,CAMERON,False,,,
554,TX1260600,Keene Police Department,City,Texas,TX,West South Central,South,Region III,JOHNSON,True,32.3962,-97.3286,01/01/2014
555,TX1250800,Orange Grove Police Department,City,Texas,TX,West South Central,South,Region III,JIM WELLS,False,27.733516,-98.090814,
556,TX0070100,Lytle Police Department,City,Texas,TX,West South Central,South,Region III,BEXAR; MEDINA; ATASCOSA,True,28.891397,-98.535381,01/01/2018
557,TX0050100,Archer City Police Department,City,Texas,TX,West South Central,South,Region III,ARCHER,True,33.616305,-98.687267,07/01/2018
558,TX2130000,Somervell County Sheriff's Office,County,Texas,TX,West South Central,South,Region III,SOMERVELL,False,32.217942,-97.769211,01/01/2020
559,TX0270000,Burnet County Sheriff's Office,County,Texas,TX,West South Central,South,Region III,BURNET,True,30.78963,-98.201187,03/01/2018
560,TX0576800,Independent School District: Cedar Hill,Other,Texas,TX,West South Central,South,Region III,DALLAS,False,32.588375,-96.95975,
561,TX1830000,Panola County Sheriff's Office,County,Texas,TX,West South Central,South,Region III,PANOLA,False,32.15494,-94.341286,
562,TX2202100,North Richland Hills Police Department,City,Texas,TX,West South Central,South,Region III,TARRANT,True,32.77204,-97.291291,01/01/2018
563,TX1400000,Lamb County Sheriff's Office,County,Texas,TX,West South Central,South,Region III,LAMB,False,33.917583,-102.32047,
564,TX0572200,Seagoville Police Department,City,Texas,TX,West South Central,South,Region III,KAUFMAN; DALLAS,True,32.64949,-96.54345,09/01/2019
565,TX0310500,Los Fresnos Police Department,City,Texas,TX,West South Central,South,Region III,CAMERON,True,26.07279,-97.47874,10/01/2017
566,TX2120200,Lindale Police Department,City,Texas,TX,West South Central,South,Region III,SMITH,True,32.375106,-95.268743,07/01/2011
567,TX0740500,Trenton Police Department,City,Texas,TX,West South Central,South,Region III,FANNIN,False,33.591161,-96.104988,
568,TX0260200,Somerville Police Department,City,Texas,TX,West South Central,South,Region III,BURLESON,False,30.493487,-96.622091,
569,TX2340100,Canton Police Department,City,Texas,TX,West South Central,South,Region III,VAN ZANDT,False,32.558948,-95.836391,
570,TX1450900,Normangee Police Department,City,Texas,TX,West South Central,South,Region III,MADISON; LEON,False,31.300493,-95.995622,08/01/2015
571,TX0612300,Corinth Police Department,City,Texas,TX,West South Central,South,Region III,DENTON,True,33.149704,-97.06156,08/01/2019
572,TX1071000,Tool Police Department,City,Texas,TX,West South Central,South,Region III,HENDERSON,True,32.211633,-95.853418,06/01/2018
573,TX0840000,Galveston County Sheriff's Office,County,Texas,TX,West South Central,South,Region III,GALVESTON,False,29.303543,-94.78816,
574,TX0110200,Elgin Police Department,City,Texas,TX,West South Central,South,Region III,TRAVIS; BASTROP,True,30.347258,-97.37147,01/01/2018
575,TX0970200,Hico Police Department,City,Texas,TX,West South Central,South,Region III,HAMILTON,False,31.706982,-98.111794,
576,TX2280000,Trinity County Sheriff's Office,County,Texas,TX,West South Central,South,Region III,TRINITY,False,31.087483,-95.153291,
577,TX2051600,Independent School District: Taft,Other,Texas,TX,West South Central,South,Region III,SAN PATRICIO,False,28.011786,-97.517162,
578,TX0410000,Coke County Sheriff's Office,County,Texas,TX,West South Central,South,Region III,COKE,False,31.877105,-100.635236,
579,TX0540200,Lorenzo Police Department,City,Texas,TX,West South Central,South,Region III,CROSBY,False,33.609144,-101.29871,
580,TX1520800,Wolfforth Police Department,City,Texas,TX,West South Central,South,Region III,LUBBOCK,True,33.611469,-101.819944,10/01/2016
581,TX0152000,Independent School District: Judson,Other,Texas,TX,West South Central,South,Region III,BEXAR,True,29.448671,-98.520147,02/01/2019
582,TX2201000,Everman Police Department,City,Texas,TX,West South Central,South,Region III,TARRANT,True,32.631054,-97.28611,09/01/2019
583,TX0680400,University of Texas: Permian Basin,University or College,Texas,TX,West South Central,South,Region III,ECTOR,False,31.881498,-102.32139,
584,TX0620100,Cuero Police Department,City,Texas,TX,West South Central,South,Region III,DEWITT,True,29.082346,-97.361654,11/01/2016
585,TX1810400,Vidor Police Department,City,Texas,TX,West South Central,South,Region III,ORANGE,True,30.120918,-93.893358,01/01/2018
586,TX0750300,Schulenburg Police Department,City,Texas,TX,West South Central,South,Region III,FAYETTE,True,29.877886,-96.921231,01/01/2018
587,TX1610100,Bay City Police Department,City,Texas,TX,West South Central,South,Region III,MATAGORDA,True,28.981882,-95.96749,02/01/2017
588,TX0550000,Culberson County Sheriff's Office,County,Texas,TX,West South Central,South,Region III,CULBERSON,False,31.445908,-104.526945,
589,TX2270200,Manor Police Department,City,Texas,TX,West South Central,South,Region III,TRAVIS,True,30.239513,-97.69127,11/01/2018
590,TX0120000,Baylor County Sheriff's Office,County,Texas,TX,West South Central,South,Region III,BAYLOR,False,33.587948,-99.261635,
591,TX0911000,Howe Police Department,City,Texas,TX,West South Central,South,Region III,GRAYSON,False,33.624508,-96.675699,
592,TX0573300,Rowlett Police Department,City,Texas,TX,West South Central,South,Region III,ROCKWALL; DALLAS,True,32.766987,-96.778424,01/01/1998
593,TX1820200,Mineral Wells Police Department,City,Texas,TX,West South Central,South,Region III,PARKER; PALO PINTO,True,32.810078,-98.11293,01/01/2018
594,TX2490100,Bridgeport Police Department,City,Texas,TX,West South Central,South,Region III,WISE,True,33.213524,-97.75744,02/01/2017
595,TX0980000,Hansford County Sheriff's Office,County,Texas,TX,West South Central,South,Region III,HANSFORD,True,36.272847,-101.35693,02/01/2019
596,TX2060100,San Saba Police Department,City,Texas,TX,West South Central,South,Region III,SAN SABA,True,31.155138,-98.819292,11/01/1997
597,TX0611200,Flower Mound Police Department,City,Texas,TX,West South Central,South,Region III,TARRANT; DENTON,True,33.041096,-97.04453,04/01/2002
598,TX0330100,Panhandle Police Department,City,Texas,TX,West South Central,South,Region III,CARSON,False,35.405496,-101.355356,
599,TX2300900,East Mountain Police Department,City,Texas,TX,West South Central,South,Region III,UPSHUR,False,32.735349,-94.941184,
600,TX0190500,Texarkana Police Department,City,Texas,TX,West South Central,South,Region III,BOWIE,False,33.405632,-94.04313,
601,TX0130000,Bee County Sheriff's Office,County,Texas,TX,West South Central,South,Region III,BEE,True,28.416077,-97.742586,01/01/2018
602,TX0990000,Hardeman County Sheriff's Office,County,Texas,TX,West South Central,South,Region III,HARDEMAN,True,34.289904,-99.745697,06/01/2015
603,TX0312900,Laguna Vista Police Department,City,Texas,TX,West South Central,South,Region III,CAMERON,True,26.103079,-97.291176,04/01/2018
604,TX0560000,Dallam County Sheriff's Office,County,Texas,TX,West South Central,South,Region III,DALLAM,False,36.06129,-102.5219,
605,TX2050300,Portland Police Department,City,Texas,TX,West South Central,South,Region III,SAN PATRICIO,True,27.890156,-97.31499,06/01/2016
606,TX0340100,Atlanta Police Department,City,Texas,TX,West South Central,South,Region III,CASS,False,33.083698,-94.357579,
607,TX1550200,Beverly Hills Police Department,City,Texas,TX,West South Central,South,Region III,MCLENNAN,False,31.525549,-97.1494,
608,TX1490100,Three Rivers Police Department,City,Texas,TX,West South Central,South,Region III,LIVE OAK,True,28.351535,-98.126961,07/01/2019
609,TX1980200,Calvert Police Department,City,Texas,TX,West South Central,South,Region III,ROBERTSON,True,31.025481,-96.514941,10/01/2018
610,TX1081000,Mission Police Department,City,Texas,TX,West South Central,South,Region III,HIDALGO,False,26.396384,-98.18099,
611,TX0400000,Cochran County Sheriff's Office,County,Texas,TX,West South Central,South,Region III,COCHRAN,True,33.7252,-102.75924,01/01/2019
612,TX0912100,Tioga Police Department,City,Texas,TX,West South Central,South,Region III,GRAYSON,True,33.624508,-96.675699,08/01/2018
613,TX1280000,Karnes County Sheriff's Office,County,Texas,TX,West South Central,South,Region III,KARNES,True,28.885094,-97.90106,11/01/2019
614,TX0830000,Gaines County Sheriff's Office,County,Texas,TX,West South Central,South,Region III,GAINES,False,32.719017,-102.642555,
615,TX0614700,Denton County Water District,Other,Texas,TX,West South Central,South,Region III,DENTON,True,,,08/01/2019
616,TX0610100,Argyle Police Department,City,Texas,TX,West South Central,South,Region III,DENTON,False,33.205005,-97.119046,01/01/2020
617,TX0201000,Pearland Police Department,City,Texas,TX,West South Central,South,Region III,FORT BEND; HARRIS; BRAZORIA,True,29.167817,-95.434647,01/01/1998
618,TX1130000,Houston County Sheriff's Office,County,Texas,TX,West South Central,South,Region III,HOUSTON,True,31.31833,-95.46038,01/01/2018
619,TX1050300,Texas State University: San Marcos,University or College,Texas,TX,West South Central,South,Region III,HAYS,True,29.88583,-97.937836,11/01/2019
620,TX0842200,Bayou Vista Police Department,City,Texas,TX,West South Central,South,Region III,GALVESTON,False,29.330925,-94.93987,
621,TX1560000,McMullen County Sheriff's Office,County,Texas,TX,West South Central,South,Region III,MCMULLEN,False,28.384922,-98.578853,
622,TX1990000,Rockwall County Sheriff's Office,County,Texas,TX,West South Central,South,Region III,ROCKWALL,True,32.898054,-96.404396,02/01/2012
623,TX2450900,Independent School District: Raymondville,Other,Texas,TX,West South Central,South,Region III,WILLACY,False,26.481092,-97.584223,
624,TX1340100,Junction Police Department,City,Texas,TX,West South Central,South,Region III,KIMBLE,True,30.488403,-99.76526,01/01/2019
625,TX1270200,Hamlin Police Department,City,Texas,TX,West South Central,South,Region III,JONES,True,32.743709,-99.87443,12/01/2018
626,TX1551300,West Police Department,City,Texas,TX,West South Central,South,Region III,MCLENNAN,True,31.549493,-97.201472,06/01/2018
627,TX1631000,Natalia,City,Texas,TX,West South Central,South,Region III,MEDINA,True,29.353661,-99.111085,07/01/2018
628,TX1120200,Sulphur Springs Police Department,City,Texas,TX,West South Central,South,Region III,HOPKINS,True,33.13756,-95.602875,11/01/2019
629,TX2410000,Wharton County Sheriff's Office,County,Texas,TX,West South Central,South,Region III,WHARTON,True,29.27848,-96.229674,01/01/2012
630,TX0280000,Caldwell County Sheriff's Office,County,Texas,TX,West South Central,South,Region III,CALDWELL,True,29.840062,-97.630394,07/01/2019
631,TX0575500,Ovilla Police Department,City,Texas,TX,West South Central,South,Region III,DALLAS; ELLIS,False,32.527256,-96.88891,
632,TX2401100,Independent School District: Laredo,Other,Texas,TX,West South Central,South,Region III,WEBB,False,27.50718,-99.512375,
633,TX0270600,Bertram Police Department,City,Texas,TX,West South Central,South,Region III,BURNET,False,30.78963,-98.201187,
634,TX1160600,Texas A&M University: Commerce,University or College,Texas,TX,West South Central,South,Region III,HUNT,True,33.123292,-96.084202,03/01/2009
635,TX0570900,Duncanville Police Department,City,Texas,TX,West South Central,South,Region III,DALLAS,True,32.766987,-96.778424,03/01/2019
636,TX0300100,Baird Police Department,City,Texas,TX,West South Central,South,Region III,CALLAHAN,True,32.29315,-99.372249,07/01/2018
637,TX0190600,Wake Village Police Department,City,Texas,TX,West South Central,South,Region III,BOWIE,True,33.446051,-94.422375,02/01/2019
638,TX0151000,Leon Valley Police Department,City,Texas,TX,West South Central,South,Region III,BEXAR,True,29.49208,-98.61705,02/01/2018
639,TX1550700,McGregor Police Department,City,Texas,TX,West South Central,South,Region III,MCLENNAN,False,31.4415,-97.40726,
640,TX0180800,Meridian Police Department,City,Texas,TX,West South Central,South,Region III,BOSQUE,False,31.900764,-97.637632,01/01/2020
641,TX1230800,Port Neches Police Department,City,Texas,TX,West South Central,South,Region III,JEFFERSON,True,29.854,-94.149331,09/01/2016
642,TX1720500,Naples Police Department,City,Texas,TX,West South Central,South,Region III,MORRIS,True,33.116466,-94.731265,08/01/2019
643,TX1551800,Texas State Technical College: Waco,University or College,Texas,TX,West South Central,South,Region III,MCLENNAN,True,31.549493,-97.201472,12/01/2019
644,TX2000100,Ballinger Police Department,City,Texas,TX,West South Central,South,Region III,RUNNELS,True,31.736975,-99.94931,01/01/2019
645,TX0700000,Ellis County Sheriff's Office,County,Texas,TX,West South Central,South,Region III,ELLIS,True,32.388092,-96.844894,06/01/2019
646,TX0430600,Plano Police Department,City,Texas,TX,West South Central,South,Region III,DENTON; COLLIN,True,33.0179,-96.70228,07/01/2005
647,TX1261300,Godley Police Department,City,Texas,TX,West South Central,South,Region III,JOHNSON,True,32.379784,-97.364952,10/01/2019
648,TX0610200,Denton Police Department,City,Texas,TX,West South Central,South,Region III,DENTON,True,33.214447,-97.12535,01/01/2002
649,TX1110100,Granbury Police Department,City,Texas,TX,West South Central,South,Region III,HOOD,True,32.430149,-97.831677,11/01/2019
650,TX0910500,Van Alstyne Police Department,City,Texas,TX,West South Central,South,Region III,GRAYSON,False,33.624508,-96.675699,
651,TX0220100,Alpine Police Department,City,Texas,TX,West South Central,South,Region III,BREWSTER,False,29.808997,-103.252458,
652,TX2120800,Tyler Junior College,University or College,Texas,TX,West South Central,South,Region III,SMITH,True,32.375106,-95.268743,07/01/2011
653,TX0540000,Crosby County Sheriff's Office,County,Texas,TX,West South Central,South,Region III,CROSBY,True,33.65887,-101.23943,03/01/2018
654,TX2205000,Hospital District: Tarrant County,Other,Texas,TX,West South Central,South,Region III,TARRANT,True,32.72811,-97.32642,10/01/2016
655,TX0380000,Childress County Sheriff's Office,County,Texas,TX,West South Central,South,Region III,CHILDRESS,False,34.529337,-100.208336,
656,TX2462500,Jarrell Police Department,City,Texas,TX,West South Central,South,Region III,WILLIAMSON,True,30.64903,-97.605069,12/01/2018
657,TX1510000,Loving County Sheriff's Office,County,Texas,TX,West South Central,South,Region III,LOVING,True,31.844936,-103.561229,05/01/2019
658,TX1740100,Garrison,City,Texas,TX,West South Central,South,Region III,NACOGDOCHES,True,,,01/01/2019
659,TX0770100,Floydada Police Department,City,Texas,TX,West South Central,South,Region III,FLOYD,True,33.986713,-101.33514,01/01/2019
660,TX0930100,Navasota Police Department,City,Texas,TX,West South Central,South,Region III,GRIMES,True,30.543231,-95.988082,02/01/2018
661,TX1350000,King County Sheriff's Office,County,Texas,TX,West South Central,South,Region III,KING,False,33.614159,-100.250548,
662,TX0200500,Freeport Police Department,City,Texas,TX,West South Central,South,Region III,BRAZORIA,True,28.960672,-95.37389,01/01/2018
663,TX2320000,Uvalde County Sheriff's Office,County,Texas,TX,West South Central,South,Region III,UVALDE,False,29.211359,-99.78582,
664,TX0613700,Bartonville Police Department,City,Texas,TX,West South Central,South,Region III,DENTON,True,33.205005,-97.119046,12/01/2019
665,TX0311000,Santa Rosa Police Department,City,Texas,TX,West South Central,South,Region III,CAMERON,False,26.102923,-97.478958,
666,TX2121900,Independent School District: Tyler,Other,Texas,TX,West South Central,South,Region III,SMITH,False,32.375106,-95.268743,
667,TX1880200,Amarillo College,University or College,Texas,TX,West South Central,South,Region III,POTTER,True,35.398675,-101.893804,07/01/2019
668,TX0142300,Texas A&M University: Central Texas,University or College,Texas,TX,West South Central,South,Region III,BELL,False,,,
669,TX2080000,Scurry County Sheriff's Office,County,Texas,TX,West South Central,South,Region III,SCURRY,False,32.71602,-100.91133,
670,TX1980000,Robertson County Sheriff's Office,County,Texas,TX,West South Central,South,Region III,ROBERTSON,True,31.025481,-96.514941,06/01/2017
671,TX1190000,Jack County Sheriff's Office,County,Texas,TX,West South Central,South,Region III,JACK,False,33.23241,-98.171884,
672,TX2380100,Monahans Police Department,City,Texas,TX,West South Central,South,Region III,WARD,False,31.594904,-102.89081,
673,TX1890000,Presidio County Sheriff's Office,County,Texas,TX,West South Central,South,Region III,PRESIDIO,True,30.005891,-104.261619,10/01/2018
674,TX0702200,Maypearl,City,Texas,TX,West South Central,South,Region III,ELLIS,False,,,01/01/2020
675,TX2400000,Webb County Sheriff's Office,County,Texas,TX,West South Central,South,Region III,WEBB,True,27.770584,-99.326641,09/01/2019
676,TX0290000,Calhoun County Sheriff's Office,County,Texas,TX,West South Central,South,Region III,CALHOUN,True,28.445366,-96.5833,02/01/2017
677,TX2230000,Terry County Sheriff's Office,County,Texas,TX,West South Central,South,Region III,TERRY,False,33.171229,-102.339284,
678,TX2051700,Lake City Police Department,City,Texas,TX,West South Central,South,Region III,SAN PATRICIO,False,28.011786,-97.517162,07/01/2015
679,TX0152100,Alamo Community College District,University or College,Texas,TX,West South Central,South,Region III,BEXAR,False,29.448671,-98.520147,
680,TX2280700,Independent School District:,Other,Texas,TX,West South Central,South,Region III,TRINITY,True,,,04/01/2019
681,TX1870400,Corrigan Police Department,City,Texas,TX,West South Central,South,Region III,POLK,True,30.998257,-94.82628,07/01/2017
682,TX1420000,La Salle County Sheriff's Office,County,Texas,TX,West South Central,South,Region III,LA SALLE,False,28.351098,-99.096774,
683,TX0450200,Eagle Lake Police Department,City,Texas,TX,West South Central,South,Region III,COLORADO,False,29.595991,-96.508433,
684,TX1810300,Pinehurst Police Department,City,Texas,TX,West South Central,South,Region III,ORANGE,True,30.104055,-93.77531,02/01/2019
685,TX1012700,Katy Police Department,City,Texas,TX,West South Central,South,Region III,WALLER; FORT BEND; HARRIS,True,29.80157,-95.81696,01/01/1999
686,TX2460100,Florence Police Department,City,Texas,TX,West South Central,South,Region III,WILLIAMSON,True,30.64903,-97.605069,10/01/2018
687,TX1270000,Jones County Sheriff's Office,County,Texas,TX,West South Central,South,Region III,JONES,False,32.743709,-99.87443,
688,TX0280200,Luling Police Department,City,Texas,TX,West South Central,South,Region III,GUADALUPE; CALDWELL,False,29.681171,-97.65398,
689,TX0313400,Port of Brownsville,Other,Texas,TX,West South Central,South,Region III,CAMERON,True,26.102923,-97.478958,09/01/2019
690,TX1090200,Hubbard Police Department,City,Texas,TX,West South Central,South,Region III,HILL,False,31.982681,-97.130668,
691,TX1080400,Edinburg Police Department,City,Texas,TX,West South Central,South,Region III,HIDALGO,False,26.396384,-98.18099,
692,TX0670500,Rising Star Police Department,City,Texas,TX,West South Central,South,Region III,EASTLAND,False,32.324645,-98.83656,
693,TX1650100,Midland Police Department,City,Texas,TX,West South Central,South,Region III,MIDLAND,False,32.002758,-102.07577,
694,TX0431700,Melissa Police Department,City,Texas,TX,West South Central,South,Region III,COLLIN,True,33.194745,-96.579846,08/01/2018
695,TX0202700,Jones Creek Police Department,City,Texas,TX,West South Central,South,Region III,BRAZORIA,False,28.967339,-95.46131,
696,TX1260200,Burleson Police Department,City,Texas,TX,West South Central,South,Region III,TARRANT; JOHNSON,True,32.542843,-97.32428,02/01/2019
697,TX0460000,Comal County Sheriff's Office,County,Texas,TX,West South Central,South,Region III,COMAL,False,29.681768,-98.15045,
698,TX0611500,The Colony Police Department,City,Texas,TX,West South Central,South,Region III,DENTON,True,33.098576,-96.88014,01/01/2008
699,TX1522000,Lubbock Christian University,University or College,Texas,TX,West South Central,South,Region III,LUBBOCK,True,,,01/01/2018
700,TX2270900,Pflugerville Police Department,City,Texas,TX,West South Central,South,Region III,WILLIAMSON; TRAVIS,True,30.239513,-97.69127,09/01/2017
701,TX2430700,Midwestern State University,University or College,Texas,TX,West South Central,South,Region III,WICHITA,True,33.877552,-98.51852,07/01/2019
702,TX0190800,Hooks Police Department,City,Texas,TX,West South Central,South,Region III,BOWIE,False,33.446051,-94.422375,
703,TX1290900,Crandall Police Department,City,Texas,TX,West South Central,South,Region III,KAUFMAN,True,32.598944,-96.288378,07/01/2019
704,TX0300300,Clyde Police Department,City,Texas,TX,West South Central,South,Region III,CALLAHAN,False,32.29315,-99.372249,
705,TX0140300,Harker Heights Police Department,City,Texas,TX,West South Central,South,Region III,BELL,True,31.042303,-97.481374,08/01/2019
706,TX2050800,Gregory Police Department,City,Texas,TX,West South Central,South,Region III,SAN PATRICIO,False,28.011786,-97.517162,
707,TX0000000,Department of Public Safety,State Police,Texas,TX,West South Central,South,Region III,,False,30.239513,-97.69127,
708,TX1100100,Levelland Police Department,City,Texas,TX,West South Central,South,Region III,HOCKLEY,True,33.57934,-102.37784,10/01/2018
709,TX1400400,Olton Police Department,City,Texas,TX,West South Central,South,Region III,LAMB,False,34.068861,-102.348018,
710,TX1016000,Independent School District: Klein,Other,Texas,TX,West South Central,South,Region III,HARRIS,True,30.04779,-95.53231,01/01/2019
711,TX1630900,Lacoste Police Department,City,Texas,TX,West South Central,South,Region III,MEDINA,False,29.353661,-99.111085,
712,TX1550500,Lacy-Lakeview Police Department,City,Texas,TX,West South Central,South,Region III,MCLENNAN,True,31.62393,-97.10311,01/01/2016
713,TX0711100,El Paso Community College,University or College,Texas,TX,West South Central,South,Region III,EL PASO,False,31.766403,-106.24139,
714,TX0210100,Bryan Police Department,City,Texas,TX,West South Central,South,Region III,BRAZOS,False,30.656725,-96.302389,
715,TX1500000,Llano County Sheriff's Office,County,Texas,TX,West South Central,South,Region III,LLANO,True,30.707584,-98.68469,05/01/2019
716,TX0910300,Pottsboro Police Department,City,Texas,TX,West South Central,South,Region III,GRAYSON,False,33.624508,-96.675699,
717,TX1200100,Edna Police Department,City,Texas,TX,West South Central,South,Region III,JACKSON,True,28.975735,-96.64819,11/01/2011
718,TX0530000,Crockett County Sheriff's Office,County,Texas,TX,West South Central,South,Region III,CROCKETT,True,30.717532,-101.404211,07/01/2018
719,TX0151200,Shavano Park Police Department,City,Texas,TX,West South Central,South,Region III,BEXAR,False,29.448671,-98.520147,
720,TX2210800,Tye Police Department,City,Texas,TX,West South Central,South,Region III,TAYLOR,True,32.295054,-99.893644,03/01/2018
721,TX1081500,La Joya Police Department,City,Texas,TX,West South Central,South,Region III,HIDALGO,False,26.396384,-98.18099,
722,TX0700200,Ferris Police Department,City,Texas,TX,West South Central,South,Region III,DALLAS; ELLIS,False,32.534283,-96.666824,
723,TX0430800,Wylie Police Department,City,Texas,TX,West South Central,South,Region III,DALLAS; ROCKWALL; COLLIN,True,33.02303,-96.51876,12/01/2006
724,TX0310100,Brownsville Police Department,City,Texas,TX,West South Central,South,Region III,CAMERON,True,25.90872,-97.49824,03/01/2018
725,TX2150000,Stephens County Sheriff's Office,County,Texas,TX,West South Central,South,Region III,STEPHENS,True,32.755444,-98.903915,08/01/2018
726,TX2370700,Hempstead Police Department,City,Texas,TX,West South Central,South,Region III,WALLER,True,30.013578,-95.982102,01/01/2017
727,TX1000900,Lumberton Police Department,City,Texas,TX,West South Central,South,Region III,HARDIN,True,30.265972,-94.19866,08/01/2010
728,TX1570100,Madisonville Police Department,City,Texas,TX,West South Central,South,Region III,MADISON,True,30.966878,-95.930372,12/01/2016
729,TX0710000,El Paso County Sheriff's Office,County,Texas,TX,West South Central,South,Region III,EL PASO,True,31.766403,-106.24139,07/01/2019
730,TX1551600,McLennan Community College,University or College,Texas,TX,West South Central,South,Region III,MCLENNAN,True,31.591955,-97.17414,07/01/2017
731,TX2330000,Val Verde County Sheriff's Office,County,Texas,TX,West South Central,South,Region III,VAL VERDE,False,29.884961,-101.146646,
732,TX0150100,Alamo Heights Police Department,City,Texas,TX,West South Central,South,Region III,BEXAR,True,29.448671,-98.520147,09/01/2019
733,TX2140200,Rio Grande City Police Department,City,Texas,TX,West South Central,South,Region III,STARR,True,26.546335,-98.715803,07/01/2019
734,TX2540100,Crystal City Police Department,City,Texas,TX,West South Central,South,Region III,ZAVALA,False,28.678623,-99.82837,
735,TX0200300,Clute Police Department,City,Texas,TX,West South Central,South,Region III,BRAZORIA,True,29.02107,-95.4045,01/01/2019
736,TX0613900,Northlake Police Department,City,Texas,TX,West South Central,South,Region III,DENTON,True,33.205005,-97.119046,10/01/2018
737,TX0370000,Cherokee County Sheriff's Office,County,Texas,TX,West South Central,South,Region III,CHEROKEE,True,31.806877,-95.15124,01/01/2018
738,TX1910100,Canyon Police Department,City,Texas,TX,West South Central,South,Region III,RANDALL,True,34.98086,-101.92753,09/01/2016
739,TX2320200,Sabinal Police Department,City,Texas,TX,West South Central,South,Region III,UVALDE,False,29.35034,-99.761074,
740,TX2090000,Shackelford County Sheriff's Office,County,Texas,TX,West South Central,South,Region III,SHACKELFORD,True,32.74382,-99.347005,07/01/2019
